Timestamp_ns,Gyro_X,Gyro_Y,Gyro_Z,Acc_X,Acc_Y,Acc_Z,Mag_X,Mag_Y,Mag_Z,Roll,Pitch,Yaw,Pos_X,Pos_Y,Pos_Z,Vel_X,Vel_Y,Vel_Z,Airspeed,Groundspeed,Heading,Throttle,Alt,Climb,Servo1_Raw,Servo2_Raw,Servo3_Raw,Servo4_Raw,Thrust_Vector_X,Thrust_Vector_Y,Thrust_Vector_Z,Thrust_Angle_From_Z
1729765573564495767,0.0024811457842588425,0.0009338583331555128,0.00042355607729405165,-0.1335374265909195,-0.000544130802154541,-9.780326843261719,0.011082720942795277,-0.21027033030986786,0.43343088030815125,-0.0011931764893233776,-0.01257309690117836,1.6131724119186401,0.06130918115377426,-0.049533311277627945,0.10788435488939285,0.0315341018140316,-0.06345652043819427,0.0600677989423275,0.0,0.07085993140935898,92,0,487.98333740234375,-0.0600677989423275,900,900,900,900,0.0,0.0,0.0,1.5707963267948966
1729765573571714513,0.0008832497987896204,-0.0009303553961217403,-0.0014406603295356035,-0.14072003960609436,-0.013712243176996708,-9.817438125610352,0.011082720942795277,-0.21027033030986786,0.43343088030815125,-0.0011827896814793348,-0.012578083202242851,1.6131656169891357,0.06152956187725067,-0.04974127933382988,0.10803187638521194,0.03174114599823952,-0.06343389302492142,0.05993682146072388,0.0,0.07093207538127899,92,0,487.9831848144531,-0.05993682146072388,900,900,900,900,0.0,0.0,0.0,1.5707963267948966
1729765573579106190,-0.0017799135530367494,0.0009338576346635818,0.0009561842307448387,-0.15747946500778198,-0.00892383698374033,-9.77194595336914,0.011082720942795277,-0.21027033030986786,0.43343088030815125,-0.001190677867271006,-0.012575360015034676,1.6131725311279297,0.06175282970070839,-0.04996117576956749,0.10818019509315491,0.031796783208847046,-0.06355896592140198,0.059982236474752426,0.0,0.07106882333755493,92,0,487.9830322265625,-0.059982236474752426,900,900,900,900,0.0,0.0,0.0,1.5707963267948966
1729765573584806057,-0.0007146451389417052,-0.0030608843080699444,0.00095618877094239,-0.1550852656364441,-0.022091947495937347,-9.79349422454834,0.011082720942795277,-0.21027033030986786,0.43343088030815125,-0.0011996922548860312,-0.01259052474051714,1.6131846904754639,0.06197992339730263,-0.050193317234516144,0.10834050923585892,0.03211706504225731,-0.06367743015289307,0.06006021797657013,0.0,0.07131844758987427,92,0,487.9828796386719,-0.06006021797657013,900,900,900,900,0.0,0.0,0.0,1.5707963267948966
1729765573593273851,-0.001779912388883531,0.0009338576346635818,-0.00037539697950705886,-0.10600411891937256,-0.05321657285094261,-9.786314010620117,0.011082720942795277,-0.21027033030986786,0.43343088030815125,-0.0012106815120205283,-0.012593792751431465,1.6131850481033325,0.06221208721399307,-0.05043640360236168,0.1085117906332016,0.03260834142565727,-0.06350412964820862,0.06008327379822731,0.0,0.07138682156801224,92,0,487.9826965332031,-0.06008327379822731,900,900,900,900,0.0,0.0,0.0,1.5707963267948966
1729765573600955696,-0.0015135970897972584,0.001200174679979682,0.00015723821707069874,-0.1311432272195816,0.03896019235253334,-9.794692993164062,0.011082720942795277,-0.21027033030986786,0.43343088030815125,-0.0012259002542123199,-0.012585176154971123,1.6131832599639893,0.062447868287563324,-0.05068871006369591,0.10869379341602325,0.03249536082148552,-0.0633949413895607,0.06008462235331535,0.0,0.07123810052871704,92,0,487.9825134277344,-0.06008462235331535,900,900,900,900,0.0,0.0,0.0,1.5707963267948966
1729765573609352404,8.4299361333251e-05,0.005194916855543852,0.002287766430526972,-0.1419171541929245,0.016215283423662186,-9.767159461975098,0.011082720942795277,-0.21027033030986786,0.43343088030815125,-0.0012286317069083452,-0.01254868134856224,1.6132023334503174,0.06268433481454849,-0.05095091834664345,0.10888656228780746,0.03240125626325607,-0.06337501108646393,0.06024148687720299,0.0,0.07117747515439987,92,0,487.9823303222656,-0.06024148687720299,900,900,900,900,0.0,0.0,0.0,1.5707963267948966
1729765573620890995,8.430215530097485e-05,0.00120017328299582,0.00015723746037110686,-0.15747946500778198,0.021003685891628265,-9.78990364074707,0.011082720942795277,-0.21027033030986786,0.43343088030815125,-0.0012247785925865173,-0.012526985257863998,1.613206386566162,0.06292221695184708,-0.05122425779700279,0.10909052938222885,0.03235563635826111,-0.06358886510133743,0.06033167988061905,0.0,0.07134725898504257,92,0,487.98211669921875,-0.06033167988061905,900,900,900,900,0.0,0.0,0.0,1.5707963267948966
1729765573624199011,-0.0012472800444811583,-0.0011966722086071968,-0.00010907946852967143,-0.12515774369239807,-0.014909341931343079,-9.765962600708008,0.011082720942795277,-0.21027033030986786,0.43343088030815125,-0.0012325758580118418,-0.012538204900920391,1.6132051944732666,0.06316221505403519,-0.05150800943374634,0.10930515825748444,0.032523803412914276,-0.06351573020219803,0.060519762337207794,0.0,0.0713585764169693,92,0,487.9819030761719,-0.060519762337207794,900,900,900,900,0.0,0.0,0.0,1.5707963267948966
1729765573632328888,8.430008892901242e-05,0.00040122587233781815,0.0006898712599650025,-0.11917223036289215,-0.006529637612402439,-9.758779525756836,0.011082720942795277,-0.21027033030986786,0.43343088030815125,-0.0012372268829494715,-0.012536536902189255,1.6132079362869263,0.06340521574020386,-0.051800649613142014,0.10953112691640854,0.032662320882081985,-0.06340084969997406,0.06078805401921272,0.0,0.07131966948509216,92,0,487.981689453125,-0.06078805401921272,900,900,900,900,0.0,0.0,0.0,1.5707963267948966
1729765573640915092,-0.00044833210995420814,0.0025317533873021603,0.003086715005338192,-0.12036934494972229,-0.016106443479657173,-9.811450958251953,0.011082720942795277,-0.21027033030986786,0.43343088030815125,-0.001236763666383922,-0.012516655959188938,1.6132277250289917,0.06365087628364563,-0.05210152640938759,0.10975396633148193,0.03280947357416153,-0.0632488876581192,0.060773685574531555,0.0,0.0712522491812706,92,0,487.9814758300781,-0.060773685574531555,900,900,900,900,0.0,0.0,0.0,1.5707963267948966
1729765573650512587,-0.0023125428706407547,0.00040122377686202526,0.00042355433106422424,-0.14909973740577698,-0.020894847810268402,-9.807861328125,0.011082720942795277,-0.21027033030986786,0.43343088030815125,-0.001253198366612196,-0.012509504333138466,1.6132358312606812,0.06389998644590378,-0.052411314100027084,0.1099853664636612,0.03308326378464699,-0.06333458423614502,0.0606539361178875,0.0,0.07145468890666962,92,0,487.9812316894531,-0.0606539361178875,900,900,900,900,0.0,0.0,0.0,1.5707963267948966
1729765573657095920,-0.002046226989477873,0.0006675408221781254,-0.0011743427021428943,-0.1335374265909195,-0.000544130802154541,-9.800677299499512,0.004565457813441753,-0.21522273123264313,0.42803239822387695,-0.0012715900084003806,-0.01250444259494543,1.6132299900054932,0.0641527771949768,-0.05273038148880005,0.11022517830133438,0.033287789672613144,-0.0633273795247078,0.060595687478780746,0.0,0.07154323160648346,92,0,487.9809875488281,-0.060595687478780746,900,900,900,900,0.0,0.0,0.0,1.5707963267948966
1729765573664576782,0.00035061579546891153,-0.0033272001892328262,-0.0006417089607566595,-0.14550845324993134,-0.007726736832410097,-9.801874160766602,0.008496522903442383,-0.20881380140781403,0.43244174122810364,-0.0012718437938019633,-0.012521711178123951,1.6132218837738037,0.06440787762403488,-0.05305841192603111,0.11047374457120895,0.033372003585100174,-0.06340552866458893,0.06059177592396736,0.0,0.07165160030126572,92,0,487.9807434082031,-0.06059177592396736,900,900,900,900,0.0,0.0,0.0,1.5707963267948966
1729765573672316102,0.00035061954986304045,0.000134909525513649,-0.0022396082058548927,-0.1287490278482437,0.016215283423662186,-9.794692993164062,0.008496522903442383,-0.20881380140781403,0.43244174122810364,-0.0012656389735639095,-0.012528300285339355,1.613208293914795,0.06466564536094666,-0.0533953458070755,0.11073043197393417,0.0334627740085125,-0.0634130984544754,0.06052443012595177,0.0,0.07170061022043228,92,0,487.9804992675781,-0.06052443012595177,900,900,900,900,0.0,0.0,0.0,1.5707963267948966
1729765573679813972,-0.002578863874077797,-0.0017293011769652367,-0.0011743416544049978,-0.14550845324993134,0.030580490827560425,-9.793495178222656,0.008496522903442383,-0.20881380140781403,0.43244174122810364,-0.0012849393533542752,-0.012533804401755333,1.6131936311721802,0.0649237334728241,-0.05374075472354889,0.11099587380886078,0.033212725073099136,-0.06349297612905502,0.06060703843832016,0.0,0.0716550275683403,92,0,487.980224609375,-0.06060703843832016,900,900,900,900,0.0,0.0,0.0,1.5707963267948966
1729765573687501519,-0.0015135961584746838,0.0009338576346635818,-0.00010908016702160239,-0.12755192816257477,-0.019697748124599457,-9.810254096984863,0.008496522903442383,-0.20881380140781403,0.43244174122810364,-0.001297009875997901,-0.012537140399217606,1.6131967306137085,0.06518325954675674,-0.05409453436732292,0.11126931756734848,0.03343433514237404,-0.06346679478883743,0.06050235033035278,0.0,0.07173485308885574,92,0,487.9799499511719,-0.06050235033035278,900,900,900,900,0.0,0.0,0.0,1.5707963267948966
1729765573695569729,0.00035061765811406076,0.00040122587233781815,0.0004235559608787298,-0.15628236532211304,0.04494570940732956,-9.823423385620117,0.008496522903442383,-0.20881380140781403,0.43244174122810364,-0.0013027163222432137,-0.01252555288374424,1.6132020950317383,0.06544507294893265,-0.054456356912851334,0.1115279421210289,0.033347342163324356,-0.06359632313251495,0.06034909561276436,0.0,0.07180903851985931,92,0,487.97967529296875,-0.06034909561276436,900,900,900,900,0.0,0.0,0.0,1.5707963267948966
1729765573703603673,0.001682198024354875,0.0004012256395071745,-0.0022396082058548927,-0.13712875545024872,0.03417179360985756,-9.804269790649414,0.008496522903442383,-0.20881380140781403,0.43244174122810364,-0.0012847203761339188,-0.01252464484423399,1.613186001777649,0.06570658087730408,-0.054827068001031876,0.11179342865943909,0.03312939405441284,-0.06371069699525833,0.06020314618945122,0.0,0.07180953770875931,92,0,487.97943115234375,-0.06020314618945122,900,900,900,900,0.0,0.0,0.0,1.5707963267948966
1729765573711642172,0.000350617163348943,0.0009338578674942255,-0.0003753946512006223,-0.1179751306772232,-0.020894845947623253,-9.791099548339844,0.008496522903442383,-0.20881380140781403,0.43244174122810364,-0.0012807724997401237,-0.01251839380711317,1.613186001777649,0.06596887856721878,-0.055205028504133224,0.11206691712141037,0.033265065401792526,-0.06358601152896881,0.06026413291692734,0.0,0.07176172733306885,92,0,487.9791564941406,-0.06026413291692734,900,900,900,900,0.0,0.0,0.0,1.5707963267948966
1729765573721110508,-0.0004459572082851082,-0.00041033863089978695,0.0009578376775607467,-0.10962515324354172,0.0030349986627697945,-9.781484603881836,0.008496522903442383,-0.20881380140781403,0.43244174122810364,-0.0012864406453445554,-0.01251960638910532,1.61318838596344,0.06601254642009735,-0.05473591387271881,0.1116420328617096,0.03328455612063408,-0.0631515309214592,0.05987224355340004,0.0,0.07138612121343613,92,0,487.9795837402344,-0.05987224355340004,900,900,900,900,0.0,0.0,0.0,1.5707963267948966
1729765573731876974,0.0006193080917000771,-0.002274551894515753,0.001224155188538134,-0.15272079408168793,0.0054292017593979836,-9.768319129943848,0.008496522903442383,-0.20881380140781403,0.43244174122810364,-0.0012838690308853984,-0.01255127415060997,1.6132034063339233,0.0660628229379654,-0.05429164320230484,0.11124148219823837,0.03318767994642258,-0.06274879723787308,0.05986347422003746,0.0,0.07098474353551865,92,0,487.97998046875,-0.05986347422003746,900,900,900,900,0.0,0.0,0.0,1.5707963267948966
1729765573737393135,-0.0001796384749468416,-0.0022745528258383274,0.00015888753114268184,-0.146735280752182,-0.007738909684121609,-9.78747272491455,0.008496522903442383,-0.20881380140781403,0.43244174122810364,-0.0012833268847316504,-0.012566457502543926,1.6132051944732666,0.0661192312836647,-0.053873080760240555,0.11086638271808624,0.03321600705385208,-0.06253767758607864,0.05979429557919502,0.0,0.07081146538257599,92,0,487.9803466796875,-0.05979429557919502,900,900,900,900,0.0,0.0,0.0,1.5707963267948966
1729765573743804383,-0.0012449052883312106,0.0017201905138790607,-0.000640059937722981,-0.14553818106651306,0.03775092586874962,-9.798246383666992,0.008496522903442383,-0.20881380140781403,0.43244174122810364,-0.0012938540894538164,-0.01257236022502184,1.6132004261016846,0.06618117541074753,-0.05348007008433342,0.11051474511623383,0.03292785957455635,-0.06236404925584793,0.05958469212055206,0.0,0.07052318006753922,92,0,487.980712890625,-0.05958469212055206,900,900,900,900,0.0,0.0,0.0,1.5707963267948966
1729765573748431291,-0.0007122731767594814,0.0011875589843839407,0.002023102482780814,-0.1383555829524994,-0.010133109986782074,-9.78866958618164,0.008496522903442383,-0.20881380140781403,0.43244174122810364,-0.0012992550618946552,-0.012570814229547977,1.6132115125656128,0.066248320043087,-0.053111180663108826,0.11018570512533188,0.032971419394016266,-0.062041040509939194,0.05944795906543732,0.0,0.07025813311338425,92,0,487.98101806640625,-0.05944795906543732,900,900,900,900,0.0,0.0,0.0,1.5707963267948966
1729765573759680155,-0.0007122706156224012,0.0003886076156049967,0.0017567845061421394,-0.09286573529243469,-0.007738908752799034,-9.83176326751709,0.008496522903442383,-0.20881380140781403,0.43244174122810364,-0.0012973608681932092,-0.012578862719237804,1.6132354736328125,0.06632238626480103,-0.05276469886302948,0.10987143963575363,0.03308020904660225,-0.06150739639997482,0.05903319641947746,0.0,0.06983881443738937,92,0,487.9813537597656,-0.05903319641947746,900,900,900,900,0.0,0.0,0.0,1.5707963267948966
1729765573767737752,-0.0007122727110981941,0.0003886094782501459,-0.0009063755278475583,-0.1359613686800003,-0.0065418086014688015,-9.820989608764648,0.008496522903442383,-0.20881380140781403,0.43244174122810364,-0.0013025614898651838,-0.012593371793627739,1.613230586051941,0.06640308350324631,-0.05243910476565361,0.10957644879817963,0.033160500228405,-0.061148084700107574,0.05860505625605583,0.0,0.06956081092357635,92,0,487.98162841796875,-0.05860505625605583,900,900,900,900,0.0,0.0,0.0,1.5707963267948966
1729765573775063883,8.667592192068696e-05,0.0003886094782501459,0.0009578376775607467,-0.10004834085702896,-0.04006063565611839,-9.82458209991455,0.008496522903442383,-0.20881380140781403,0.43244174122810364,-0.0012994022108614445,-0.012597243301570415,1.6132383346557617,0.06649089604616165,-0.052134495228528976,0.10930068045854568,0.03344743326306343,-0.0606478676199913,0.058244142681360245,0.0,0.06925961375236511,92,0,487.9819030761719,-0.058244142681360245,900,900,900,900,0.0,0.0,0.0,1.5707963267948966
1729765573783536638,-0.0009785870788618922,-0.0009429720230400562,-0.0011726915836334229,-0.13476425409317017,0.012611805461347103,-9.818596839904785,0.008496522903442383,-0.20881380140781403,0.43244174122810364,-0.001304644625633955,-0.012616070918738842,1.613236427307129,0.06658568978309631,-0.05184967815876007,0.10904352366924286,0.03344620764255524,-0.06030843406915665,0.05788378044962883,0.0,0.0689619854092598,92,0,487.982177734375,-0.05788378044962883,900,900,900,900,0.0,0.0,0.0,1.5707963267948966
1729765573791365116,0.0030161538161337376,0.0001222928985953331,-0.0017053205519914627,-0.12638455629348755,0.018597312271595,-9.810215950012207,0.005599205382168293,-0.2165202647447586,0.42957791686058044,-0.0012884881580248475,-0.01262961607426405,1.6132270097732544,0.06668516993522644,-0.05158522352576256,0.10880464315414429,0.033303625881671906,-0.059999335557222366,0.057578183710575104,0.0,0.06862252950668335,92,0,487.982421875,-0.057578183710575104,900,900,900,900,0.0,0.0,0.0,1.5707963267948966
1729765573800876661,0.0043477327562868595,0.00038860784843564034,-0.001705325092189014,-0.13715848326683044,0.012611805461347103,-9.795851707458496,0.005599205382168293,-0.2165202647447586,0.42957791686058044,-0.0012488027568906546,-0.01263680774718523,1.6132100820541382,0.06678957492113113,-0.05134052783250809,0.10858432203531265,0.03331036865711212,-0.0597383975982666,0.05741334706544876,0.0,0.06839778274297714,92,0,487.9826354980469,-0.05741334706544876,900,900,900,900,0.0,0.0,0.0,1.5707963267948966
1729765573809475727,-0.002576487371698022,0.0006549251265823841,0.0014904665295034647,-0.11800485849380493,-0.007738908752799034,-9.816203117370605,0.011591801419854164,-0.22166337072849274,0.4280432462692261,-0.0012505503837019205,-0.01266325730830431,1.6132235527038574,0.066898874938488,-0.051116324961185455,0.10838252305984497,0.03331681340932846,-0.059686481952667236,0.057200413197278976,0.0,0.06835559010505676,92,0,487.98284912109375,-0.057200413197278976,900,900,900,900,0.0,0.0,0.0,1.5707963267948966
1729765573818215694,-0.0031091172713786364,0.00012229313142597675,0.0017567856702953577,-0.1251874715089798,-0.010133110918104649,-9.806626319885254,0.011591801419854164,-0.22166337072849274,0.4280432462692261,-0.0012618725886568427,-0.012668667361140251,1.6132315397262573,0.06701381504535675,-0.05091152340173721,0.10818678885698318,0.033419471234083176,-0.05934629216790199,0.05693785473704338,0.0,0.06810905039310455,92,0,487.9830322265625,-0.05693785473704338,900,900,900,900,0.0,0.0,0.0,1.5707963267948966
1729765573822932869,-0.0023101684637367725,-0.00014402344822883606,0.001224153209477663,-0.14434108138084412,-0.00295050535351038,-9.78747272491455,0.011591801419854164,-0.22166337072849274,0.4280432462692261,-0.0012771791080012918,-0.012680982239544392,1.6132497787475586,0.06713446974754333,-0.05072552710771561,0.10800870507955551,0.03350518271327019,-0.05921842157840729,0.056818295270204544,0.0,0.06803983449935913,92,0,487.98321533203125,-0.056818295270204544,900,900,900,900,0.0,0.0,0.0,1.5707963267948966
1729765573831295861,0.00035299151204526424,-0.002807182725518942,0.0009578429162502289,-0.16110049188137054,-0.007738909684121609,-9.798246383666992,0.011591801419854164,-0.22166337072849274,0.4280432462692261,-0.0012829162878915668,-0.012708661146461964,1.6132594347000122,0.06726022064685822,-0.05055881664156914,0.10784896463155746,0.03354405611753464,-0.05917268991470337,0.05676659941673279,0.0,0.06801919639110565,92,0,487.9833679199219,-0.05676659941673279,900,900,900,900,0.0,0.0,0.0,1.5707963267948966
1729765573838972886,0.0027498374693095684,0.00012229382991790771,-0.000373741437215358,-0.16828307509422302,-0.007738909218460321,-9.807823181152344,0.011591801419854164,-0.22166337072849274,0.4280432462692261,-0.0012610009871423244,-0.012723997235298157,1.613262414932251,0.06739199161529541,-0.05041171610355377,0.10770566016435623,0.03375954180955887,-0.05920970439910889,0.05645710602402687,0.0,0.0681578740477562,92,0,487.9835205078125,-0.05645710602402687,900,900,900,900,0.0,0.0,0.0,1.5707963267948966
1729765573846546933,-0.00044595668441616,0.0001222928985953331,-0.00010742986341938376,-0.16588887572288513,0.009020502679049969,-9.798246383666992,0.011591801419854164,-0.22166337072849274,0.4280432462692261,-0.0012530621606856585,-0.012735506519675255,1.6132655143737793,0.06752878427505493,-0.050284165889024734,0.10757887363433838,0.033721838146448135,-0.05926336348056793,0.056373823434114456,0.0,0.06818583607673645,92,0,487.983642578125,-0.056373823434114456,900,900,900,900,0.0,0.0,0.0,1.5707963267948966
1729765573855159439,0.0003529922105371952,-0.0004103388637304306,-0.0006400574347935617,-0.16708597540855408,0.009020502679049969,-9.837750434875488,0.011591801419854164,-0.22166337072849274,0.4280432462692261,-0.001261073281057179,-0.012738188728690147,1.6132665872573853,0.06767040491104126,-0.05017530173063278,0.10746778547763824,0.03384922444820404,-0.059195443987846375,0.05603020638227463,0.0,0.06818995624780655,92,0,487.9837341308594,-0.05603020638227463,900,900,900,900,0.0,0.0,0.0,1.5707963267948966
1729765573862336046,0.0019508905243128538,0.0001222933642566204,-0.001971638295799494,-0.16110049188137054,0.016203109174966812,-9.817399978637695,0.011591801419854164,-0.22166337072849274,0.4280432462692261,-0.0012523409677669406,-0.01274172030389309,1.6132605075836182,0.06781674921512604,-0.050084587186574936,0.10737048089504242,0.033805493265390396,-0.05924772471189499,0.05567174404859543,0.0,0.06821366399526596,92,0,487.9838562011719,-0.05567174404859543,900,900,900,900,0.0,0.0,0.0,1.5707963267948966
1729765573870885487,0.0006193051813170314,-0.0012092874385416508,-0.0017053261399269104,-0.14194688200950623,0.0018378971144557,-9.805428504943848,0.011591801419854164,-0.22166337072849274,0.4280432462692261,-0.001240274985320866,-0.012753474526107311,1.6132440567016602,0.06796672195196152,-0.05001114681363106,0.10728776454925537,0.03375785052776337,-0.05909431725740433,0.055508483201265335,0.0,0.06805682182312012,92,0,487.9839172363281,-0.055508483201265335,900,900,900,900,0.0,0.0,0.0,1.5707963267948966
1729765573880784352,-0.0036417513620108366,0.00012229313142597675,0.0006915185367688537,-0.14793238043785095,-0.030483830720186234,-9.822186470031738,0.011591801419854164,-0.22166337072849274,0.4280432462692261,-0.0012627344112843275,-0.012763496488332748,1.61325204372406,0.06812223047018051,-0.04995432123541832,0.1072268933057785,0.034100279211997986,-0.05903499573469162,0.055217813700437546,0.0,0.06817594170570374,92,0,487.9839782714844,-0.055217813700437546,900,900,900,900,0.0,0.0,0.0,1.5707963267948966
1729765573890335072,-0.0015112195396795869,-0.00014402298256754875,-0.0019716403912752867,-0.14434108138084412,0.004232100211083889,-9.793456077575684,0.011591801419854164,-0.22166337072849274,0.4280432462692261,-0.0012723472900688648,-0.012770767323672771,1.6132451295852661,0.06828286498785019,-0.04991401731967926,0.10717972368001938,0.034085702151060104,-0.0589810311794281,0.05509990081191063,0.0,0.06812192499637604,92,0,487.9840393066406,-0.05509990081191063,900,900,900,900,0.0,0.0,0.0,1.5707963267948966
1729765573896001076,0.002217202913016081,0.0006549251265823841,-0.00010742450831457973,-0.15032656490802765,-0.016118615865707397,-9.785076141357422,0.011591801419854164,-0.22166337072849274,0.4280432462692261,-0.0012715158518403769,-0.01277934294193983,1.6132259368896484,0.06844832748174667,-0.04988938570022583,0.10714732110500336,0.03433777764439583,-0.05883815139532089,0.055127453058958054,0.0,0.06812497228384018,92,0,487.98406982421875,-0.055127453058958054,900,900,900,900,0.0,0.0,0.0,1.5707963267948966
1729765573903124134,0.0038151012267917395,0.0019865066278725863,0.0004252074286341667,-0.17785990238189697,0.044933538883924484,-9.799443244934082,0.011591801419854164,-0.22166337072849274,0.4280432462692261,-0.0012557635782286525,-0.012773821130394936,1.61322820186615,0.068619005382061,-0.04988045245409012,0.10712971538305283,0.034288275986909866,-0.0589301660656929,0.05508028715848923,0.0,0.06817954778671265,92,0,487.9841003417969,-0.05508028715848923,900,900,900,900,0.0,0.0,0.0,1.5707963267948966
1729765573910405915,8.6675223428756e-05,-0.00014402461238205433,0.0012241493677720428,-0.1622975766658783,0.006626301445066929,-9.768319129943848,0.011591801419854164,-0.22166337072849274,0.4280432462692261,-0.0012392982607707381,-0.012772852554917336,1.6132333278656006,0.06879197061061859,-0.049888867884874344,0.10712625831365585,0.034165702760219574,-0.0591253861784935,0.055151648819446564,0.0,0.0682869404554367,92,0,487.9841003417969,-0.055151648819446564,900,900,900,900,0.0,0.0,0.0,1.5707963267948966
1729765573918749671,-0.0020438532810658216,0.000654926523566246,0.00308836717158556,-0.13715848326683044,0.02338571473956108,-9.7778959274292,0.011591801419854164,-0.22166337072849274,0.4280432462692261,-0.0012572759296745062,-0.012771311216056347,1.6132575273513794,0.06896834075450897,-0.049912817776203156,0.10713756084442139,0.03412402421236038,-0.059027090668678284,0.05523645132780075,0.0,0.06818098574876785,92,0,487.98406982421875,-0.05523645132780075,900,900,900,900,0.0,0.0,0.0,1.5707963267948966
1729765573926816782,-0.0017775349551811814,-0.0012092893011868,0.0017567849718034267,-0.1275816559791565,0.052116140723228455,-9.8150053024292,0.007657380308955908,-0.21589048206806183,0.4291306436061859,-0.0012699879007413983,-0.012785233557224274,1.6132783889770508,0.06914633512496948,-0.04995068535208702,0.10716276615858078,0.03374161943793297,-0.05886087566614151,0.055158961564302444,0.0,0.0678461492061615,92,0,487.9840393066406,-0.055158961564302444,900,900,900,900,0.0,0.0,0.0,1.5707963267948966
1729765573934213862,-0.002576483180746436,-0.0001440257765352726,-0.0022379541769623756,-0.1515236794948578,-0.023301221430301666,-9.8150053024292,0.007657380308955908,-0.21589048206806183,0.4291306436061859,-0.00130740599706769,-0.012785508297383785,1.613271951675415,0.06932622194290161,-0.050002630800008774,0.10718280076980591,0.03379300236701965,-0.0588991679251194,0.05476817116141319,0.0,0.06790492683649063,92,0,487.9840393066406,-0.05476817116141319,900,900,900,900,0.0,0.0,0.0,1.5707963267948966
1729765573942845625,-0.0004459563351701945,-0.0009429734200239182,-0.0027705852407962084,-0.17426861822605133,-0.0005563031882047653,-9.797049522399902,0.013991067185997963,-0.22147563099861145,0.4309033751487732,-0.0013087865663692355,-0.012790432199835777,1.6132608652114868,0.069510817527771,-0.05006922781467438,0.10721395909786224,0.033964525908231735,-0.05900399386882782,0.05463004857301712,0.0,0.06808127462863922,92,0,487.9840087890625,-0.05463004857301712,900,900,900,900,0.0,0.0,0.0,1.5707963267948966
1729765573950378481,0.0022172045428305864,0.0006549253594130278,-0.0009063723846338689,-0.1359613835811615,-0.019709918648004532,-9.82936954498291,0.013991067185997963,-0.22147563099861145,0.4309033751487732,-0.0012979301391169429,-0.012796648778021336,1.6132500171661377,0.06969977170228958,-0.05015065148472786,0.10725679993629456,0.034132979810237885,-0.05901700630784035,0.05436820164322853,0.0,0.06817673146724701,92,0,487.98394775390625,-0.05436820164322853,900,900,900,900,0.0,0.0,0.0,1.5707963267948966
1729765573960344147,0.0011519400868564844,0.001453873934224248,-0.00037374431849457324,-0.13117295503616333,-0.025695422664284706,-9.793456077575684,0.013991067185997963,-0.22147563099861145,0.4309033751487732,-0.0012829550541937351,-0.012782229110598564,1.6132444143295288,0.06989406049251556,-0.05024489760398865,0.10731074213981628,0.03444790840148926,-0.058879781514406204,0.05428509786725044,0.0,0.068216472864151,92,0,487.9839172363281,-0.05428509786725044,900,900,900,900,0.0,0.0,0.0,1.5707963267948966
1729765573968135941,0.0011519413674250245,-0.00014402298256754875,0.003088365774601698,-0.15391789376735687,0.007823404856026173,-9.794652938842773,0.013991067185997963,-0.22147563099861145,0.4309033751487732,-0.0012716258643195033,-0.012781264260411263,1.6132690906524658,0.07009261846542358,-0.05035155266523361,0.10737636685371399,0.034446582198143005,-0.058853212743997574,0.05419493466615677,0.0,0.06819286942481995,92,0,487.98382568359375,-0.05419493466615677,900,900,900,900,0.0,0.0,0.0,1.5707963267948966
1729765573976470154,-0.000712271430529654,-0.00014402251690626144,-0.0009063765173777938,-0.146735280752182,-0.023301221430301666,-9.7778959274292,0.013991067185997963,-0.22147563099861145,0.4309033751487732,-0.0012749192537739873,-0.012786399573087692,1.6132662296295166,0.07029473781585693,-0.050471559166908264,0.10745467245578766,0.03461737185716629,-0.0589144304394722,0.05437595397233963,0.0,0.06833207607269287,92,0,487.9837646484375,-0.05437595397233963,900,900,900,900,0.0,0.0,0.0,1.5707963267948966
1729765573982810868,-0.002842802321538329,0.000654926523566246,-0.0009063760517165065,-0.14793238043785095,0.024582821875810623,-9.83176326751709,0.013991067185997963,-0.22147563099861145,0.4309033751487732,-0.0012962991604581475,-0.012782730162143707,1.6132569313049316,0.07050134986639023,-0.050604142248630524,0.1075444296002388,0.03469192981719971,-0.058898501098155975,0.05412605404853821,0.0,0.06835615634918213,92,0,487.9836730957031,-0.05412605404853821,900,900,900,900,0.0,0.0,0.0,1.5707963267948966
1729765573991139064,0.0006193086737766862,0.0011875573545694351,-0.001439006649889052,-0.1622975766658783,0.0030349986627697945,-9.810215950012207,0.013991067185997963,-0.22147563099861145,0.4309033751487732,-0.0012985944049432874,-0.012769206427037716,1.6132506132125854,0.07071039825677872,-0.05074957385659218,0.10764326900243759,0.03465016931295395,-0.0590377002954483,0.053873103111982346,0.0,0.06845498085021973,92,0,487.98358154296875,-0.053873103111982346,900,900,900,900,0.0,0.0,0.0,1.5707963267948966
1729765574000176123,0.0008856223430484533,-0.001209287904202938,-0.0009063786128535867,-0.12997585535049438,-0.0268925242125988,-9.809020042419434,0.013991067185997963,-0.22147563099861145,0.4309033751487732,-0.0012827434111386538,-0.012782088480889797,1.613237977027893,0.07092291116714478,-0.05090757831931114,0.10774991661310196,0.03484967350959778,-0.05900067836046219,0.053769372403621674,0.0,0.0685243010520935,92,0,487.98345947265625,-0.053769372403621674,900,900,900,900,0.0,0.0,0.0,1.5707963267948966
1729765574011683516,-0.0015112209366634488,0.002252822043374181,-0.0009063757606782019,-0.12039907276630402,0.013808908872306347,-9.792258262634277,0.013991067185997963,-0.22147563099861145,0.4309033751487732,-0.0013000508770346642,-0.012768124230206013,1.613232970237732,0.07113998383283615,-0.051076073199510574,0.1078670397400856,0.03497672826051712,-0.058796532452106476,0.05377667769789696,0.0,0.06841347366571426,92,0,487.98333740234375,-0.05377667769789696,900,900,900,900,0.0,0.0,0.0,1.5707963267948966
1729765574014188834,0.0008856242056936026,0.0033180871978402138,-0.0006400595302693546,-0.12877875566482544,0.017400208860635757,-9.803032875061035,0.013991067185997963,-0.22147563099861145,0.4309033751487732,-0.0012960584135726094,-0.01273693609982729,1.6132253408432007,0.0713595449924469,-0.05125485360622406,0.10799434781074524,0.03489388898015022,-0.058703016489744186,0.05367099866271019,0.0,0.06829075515270233,92,0,487.98321533203125,-0.05367099866271019,900,900,900,900,0.0,0.0,0.0,1.5707963267948966
1729765574018855767,0.00141825620085001,-0.0012092888355255127,0.0012241520453244448,-0.13237005472183228,0.010217606090009212,-9.804229736328125,0.013991067185997963,-0.22147563099861145,0.4309033751487732,-0.0012816325761377811,-0.01274285838007927,1.613232970237732,0.07158121466636658,-0.05144387483596802,0.10813162475824356,0.034872379153966904,-0.05859379470348358,0.05363602563738823,0.0,0.06818589568138123,92,0,487.98309326171875,-0.05363602563738823,900,900,900,900,0.0,0.0,0.0,1.5707963267948966
1729765574030531551,8.667760994285345e-05,-0.0017419187352061272,-0.0011726918164640665,-0.14194688200950623,0.012611805461347103,-9.785076141357422,0.013991067185997963,-0.22147563099861145,0.4309033751487732,-0.001280929078347981,-0.012757185846567154,1.6132234334945679,0.07180491089820862,-0.051643360406160355,0.108278788626194,0.03478905186057091,-0.05859716609120369,0.05366510525345802,0.0,0.06814620643854141,92,0,487.9829406738281,-0.05366510525345802,900,900,900,900,0.0,0.0,0.0,1.5707963267948966
1729765574039343726,0.0019508885452523828,-0.0017419192008674145,-0.001705323113128543,-0.1227932721376419,-0.04724324122071266,-9.785077095031738,0.013991067185997963,-0.22147563099861145,0.4309033751487732,-0.0012627376709133387,-0.012773683294653893,1.6131986379623413,0.07203204929828644,-0.05185332149267197,0.10843618214130402,0.035133931785821915,-0.058524150401353836,0.05372261255979538,0.0,0.0682603046298027,92,0,487.9827880859375,-0.05372261255979538,900,900,900,900,0.0,0.0,0.0,1.5707963267948966
1729765574048842143,0.0008856253698468208,-0.0017419182695448399,-0.0019716410897672176,-0.14074978232383728,0.022188615053892136,-9.78747272491455,0.013991067185997963,-0.22147563099861145,0.4309033751487732,-0.0012591418344527483,-0.012780217453837395,1.6131885051727295,0.07226400822401047,-0.05207258462905884,0.10860379785299301,0.03523842617869377,-0.058436401188373566,0.05380239337682724,0.0,0.0682389885187149,92,0,487.98260498046875,-0.05380239337682724,900,900,900,900,0.0,0.0,0.0,1.5707963267948966
1729765574055856597,8.66719929035753e-05,-0.001209287904202938,0.001224152627401054,-0.12039907276630402,0.03775092586874962,-9.78986644744873,0.013991067185997963,-0.22147563099861145,0.4309033751487732,-0.0012564444914460182,-0.012792126275599003,1.6131856441497803,0.07249756157398224,-0.052301619201898575,0.10878485441207886,0.03503278270363808,-0.05836886912584305,0.05379954352974892,0.0,0.06807511299848557,92,0,487.982421875,-0.05379954352974892,900,900,900,900,0.0,0.0,0.0,1.5707963267948966
1729765574059192964,-0.0012449040077626705,-0.0001440227497369051,-0.00010742736048996449,-0.1227932721376419,-0.016118615865707397,-9.785076141357422,0.013991067185997963,-0.22147563099861145,0.4309033751487732,-0.0012654879828915,-0.012792256660759449,1.6131837368011475,0.07273264229297638,-0.0525394044816494,0.10897573083639145,0.03512180224061012,-0.05821820721030235,0.05395415797829628,0.0,0.06799191981554031,92,0,487.98223876953125,-0.05395415797829628,900,900,900,900,0.0,0.0,0.0,1.5707963267948966
1729765574070776774,0.0019508895929902792,0.0017201905138790607,-0.0017053232295438647,-0.14434108138084412,-0.005344707518815994,-9.818596839904785,0.013991067185997963,-0.22147563099861145,0.4309033751487732,-0.001253085327334702,-0.012780637480318546,1.6131700277328491,0.07297102361917496,-0.05278598517179489,0.10917537659406662,0.03524108976125717,-0.05820140615105629,0.05381299927830696,0.0,0.06803923845291138,92,0,487.9820556640625,-0.05381299927830696,900,900,900,900,0.0,0.0,0.0,1.5707963267948966
1729765574079903436,-0.0004459590127225965,-0.0004103383980691433,0.00015888817142695189,-0.15631209313869476,-0.013724415563046932,-9.806626319885254,0.01061258465051651,-0.21719063818454742,0.42781826853752136,-0.0012534979032352567,-0.012779640033841133,1.6131585836410522,0.0732126533985138,-0.05304232984781265,0.10938220471143723,0.03540467843413353,-0.05831649899482727,0.05366814509034157,0.0,0.06822247058153152,92,0,487.9818420410156,-0.05366814509034157,900,900,900,900,0.0,0.0,0.0,1.5707963267948966
1729765574087597080,-0.0009785862639546394,-0.0004103397950530052,-0.0006400588899850845,-0.17426861822605133,0.019794411957263947,-9.751559257507324,0.014765415340662003,-0.2113593965768814,0.43246912956237793,-0.0012636386090889573,-0.01278286799788475,1.6131577491760254,0.07345764338970184,-0.053309403359889984,0.1095980554819107,0.0354711189866066,-0.058608170598745346,0.05398334190249443,0.0,0.06850633770227432,92,0,487.98162841796875,-0.05398334190249443,900,900,900,900,0.0,0.0,0.0,1.5707963267948966
1729765574094379307,0.0008856224594637752,0.0011875575874000788,0.0009578377939760685,-0.12638455629348755,-0.018512818962335587,-9.813806533813477,0.014765415340662003,-0.2113593965768814,0.43246912956237793,-0.001257746946066618,-0.012773311696946621,1.6131527423858643,0.07370488345623016,-0.0535866916179657,0.10982328653335571,0.035583529621362686,-0.058605071157217026,0.05393142253160477,0.0,0.06856195628643036,92,0,487.98138427734375,-0.05393142253160477,900,900,900,900,0.0,0.0,0.0,1.5707963267948966
1729765574102152804,0.0024835222866386175,0.0019865077920258045,-0.0009063744219020009,-0.12997585535049438,-0.01970992051064968,-9.805428504943848,0.014765415340662003,-0.2113593965768814,0.43246912956237793,-0.0012412200449034572,-0.012760560028254986,1.6131469011306763,0.0739561915397644,-0.05387205630540848,0.11005581170320511,0.03589364141225815,-0.05852614715695381,0.05387355387210846,0.0,0.06865612417459488,92,0,487.9811706542969,-0.05387355387210846,900,900,900,900,0.0,0.0,0.0,1.5707963267948966
1729765574113022051,0.0016845721984282136,0.0014538742834702134,-0.0017053248593583703,-0.146735280752182,0.004232099279761314,-9.78866958618164,0.014765415340662003,-0.2113593965768814,0.43246912956237793,-0.0012266451958566904,-0.012742504477500916,1.6131272315979004,0.07421059161424637,-0.05416557565331459,0.11029568314552307,0.035915497690439224,-0.058561213314533234,0.05388351529836655,0.0,0.06869743764400482,92,0,487.9809265136719,-0.05388351529836655,900,900,900,900,0.0,0.0,0.0,1.5707963267948966
1729765574118499049,-0.00043810877832584083,0.0006447660271078348,-0.0003762729756999761,-0.13838259875774384,-0.0005711764097213745,-9.790915489196777,0.014765415340662003,-0.2113593965768814,0.43246912956237793,-0.0012238817289471626,-0.012738300487399101,1.6131154298782349,0.07393431663513184,-0.05376622825860977,0.1098608747124672,0.035737235099077225,-0.05832695588469505,0.053707804530858994,0.0,0.06840456277132034,92,0,487.9813537597656,-0.053707804530858994,900,900,900,900,0.0,0.0,0.0,1.5707963267948966
1729765574127644993,0.0011597891571000218,0.0025089788250625134,-0.000908902904484421,-0.1347912698984146,0.0006259242072701454,-9.817252159118652,0.014765415340662003,-0.2113593965768814,0.43246912956237793,-0.0012129514943808317,-0.01273195631802082,1.6131058931350708,0.07367211580276489,-0.05339054763317108,0.10944961756467819,0.03560211509466171,-0.05804457888007164,0.05343277007341385,0.0,0.0680931955575943,92,0,487.9817810058594,-0.05343277007341385,900,900,900,900,0.0,0.0,0.0,1.5707963267948966
1729765574135240392,0.0032903177198022604,0.0022426617797464132,-0.0017078528180718422,-0.09768115729093552,0.013794035650789738,-9.765774726867676,0.014765415340662003,-0.2113593965768814,0.43246912956237793,-0.0011805604444816709,-0.012720329686999321,1.6130850315093994,0.07342327386140823,-0.05303667485713959,0.10906102508306503,0.03536936268210411,-0.05750351771712303,0.05337067320942879,0.0,0.06751034408807755,92,0,487.9821472167969,-0.05337067320942879,900,900,900,900,0.0,0.0,0.0,1.5707963267948966
1729765574143550526,0.004089266527444124,0.0011773982550948858,-0.0003762714914046228,-0.14436809718608856,-0.005359580274671316,-9.784928321838379,0.014765415340662003,-0.2113593965768814,0.43246912956237793,-0.0011408778373152018,-0.012719368562102318,1.6130781173706055,0.07318700104951859,-0.05270358920097351,0.1086958721280098,0.03519870340824127,-0.057210665196180344,0.05328979715704918,0.0,0.06717149168252945,92,0,487.9825134277344,-0.05328979715704918,900,900,900,900,0.0,0.0,0.0,1.5707963267948966
1729765574150040433,0.0014261050382629037,0.002242662478238344,-0.0009089037775993347,-0.1503535807132721,0.00661142822355032,-9.789717674255371,0.014765415340662003,-0.2113593965768814,0.43246912956237793,-0.0011170695070177317,-0.012714186683297157,1.6130640506744385,0.07296337187290192,-0.05239269882440567,0.1083531379699707,0.03500546142458916,-0.057078272104263306,0.05319578945636749,0.0,0.06695753335952759,92,0,487.98284912109375,-0.05319578945636749,900,900,900,900,0.0,0.0,0.0,1.5707963267948966
1729765574159141030,-0.0001717917330097407,0.00037844921462237835,0.0006889928481541574,-0.161127507686615,-0.017330588772892952,-9.814855575561523,0.014765415340662003,-0.2113593965768814,0.43246912956237793,-0.001107247662730515,-0.012712230905890465,1.613061785697937,0.07275254279375076,-0.05210387334227562,0.10803115367889404,0.035006437450647354,-0.05698895454406738,0.05287931114435196,0.0,0.06688192486763,92,0,487.9831848144531,-0.05287931114435196,900,900,900,900,0.0,0.0,0.0,1.5707963267948966
1729765574166446435,-0.00017178858979605138,-0.002817344618961215,-0.0003762714914046228,-0.16831009089946747,-0.028104498982429504,-9.79211139678955,0.014765415340662003,-0.2113593965768814,0.43246912956237793,-0.0011006268905475736,-0.012745463289320469,1.6130609512329102,0.07255523651838303,-0.05183732509613037,0.10772905498743057,0.03510874882340431,-0.057015854865312576,0.05272701010107994,0.0,0.06695843487977982,92,0,487.9834899902344,-0.05272701010107994,900,900,900,900,0.0,0.0,0.0,1.5707963267948966
1729765574175782608,-0.0039002210833132267,0.0019763505551964045,0.002020572079345584,-0.13838259875774384,0.020976640284061432,-9.816054344177246,0.014765415340662003,-0.2113593965768814,0.43246912956237793,-0.0011151364305987954,-0.0127553166821599,1.6130414009094238,0.07237041741609573,-0.051592230796813965,0.10743378847837448,0.03489569574594498,-0.05690927058458328,0.052407942712306976,0.0,0.06675608456134796,92,0,487.9837951660156,-0.052407942712306976,900,900,900,900,0.0,0.0,0.0,1.5707963267948966
1729765574184738153,-0.0004381069738883525,0.0014437157660722733,0.0009553117561154068,-0.12760867178440094,0.0018230248242616653,-9.802885055541992,0.014765415340662003,-0.2113593965768814,0.43246912956237793,-0.0011245945934206247,-0.012751339934766293,1.6130443811416626,0.07219608128070831,-0.05136696249246597,0.10715692490339279,0.034684017300605774,-0.05666934326291084,0.05214564502239227,0.0,0.06644091755151749,92,0,487.98406982421875,-0.05214564502239227,900,900,900,900,0.0,0.0,0.0,1.5707963267948966
1729765574191740909,-0.0007044238736853004,0.0006447664927691221,-0.0017078535165637732,-0.15155068039894104,0.00900562945753336,-9.787323951721191,0.014765415340662003,-0.2113593965768814,0.43246912956237793,-0.001115616993047297,-0.012757018208503723,1.6130229234695435,0.07203295081853867,-0.05116043984889984,0.10689914226531982,0.0345907136797905,-0.056512411683797836,0.05206179618835449,0.0,0.06625836342573166,92,0,487.98431396484375,-0.05206179618835449,900,900,900,900,0.0,0.0,0.0,1.5707963267948966
1729765574201696071,9.452382801100612e-05,0.0006447655614465475,-0.0017078511882573366,-0.15155068039894104,0.018582437187433243,-9.787323951721191,0.014765415340662003,-0.2113593965768814,0.43246912956237793,-0.0011118868133053184,-0.012767001986503601,1.6129966974258423,0.07188002020120621,-0.05097344145178795,0.10666029155254364,0.03434061259031296,-0.05648987367749214,0.051949452608823776,0.0,0.06610887497663498,92,0,487.98455810546875,-0.051949452608823776,900,900,900,900,0.0,0.0,0.0,1.5707963267948966
1729765574208560441,9.4525923486799e-05,-0.0006868152413517237,-0.0003762722772080451,-0.12282028794288635,-0.016133489087224007,-9.81485652923584,0.014765415340662003,-0.2113593965768814,0.43246912956237793,-0.0010998699581250548,-0.012773809023201466,1.6129897832870483,0.07173702120780945,-0.05080487206578255,0.10643980652093887,0.03425775468349457,-0.05623779818415642,0.051765646785497665,0.0,0.06585046648979187,92,0,487.9847717285156,-0.051765646785497665,900,900,900,900,0.0,0.0,0.0,1.5707963267948966
1729765574217739434,-0.00017179318820126355,0.0017100308323279023,0.0004226771998219192,-0.15274780988693237,-0.014936387538909912,-9.79570198059082,0.006992891430854797,-0.21494677662849426,0.43025025725364685,-0.0010956672485917807,-0.012776927091181278,1.6129801273345947,0.07160528004169464,-0.05065338686108589,0.1062360629439354,0.03429388999938965,-0.05607913061976433,0.05153476819396019,0.0,0.06573385745286942,92,0,487.9849853515625,-0.05153476819396019,900,900,900,900,0.0,0.0,0.0,1.5707963267948966
1729765574224643564,0.001159789739176631,-0.0009531306568533182,0.00441741943359375,-0.16232459247112274,-0.023316092789173126,-9.771761894226074,0.006992891430854797,-0.21494677662849426,0.43025025725364685,-0.0010826821671798825,-0.012786975130438805,1.6130026578903198,0.07148493826389313,-0.05052035301923752,0.10605033487081528,0.03438134491443634,-0.05613648146390915,0.05162372812628746,0.0,0.06582842767238617,92,0,487.98516845703125,-0.05162372812628746,900,900,900,900,0.0,0.0,0.0,1.5707963267948966
1729765574231883572,0.001159790437668562,0.0006447664927691221,-0.00010995595948770642,-0.12880577147006989,-0.0029653781093657017,-9.832812309265137,0.00836278684437275,-0.21613352000713348,0.42483314871788025,-0.001063407864421606,-0.012790163978934288,1.6130019426345825,0.07137585431337357,-0.05040494352579117,0.10588186979293823,0.03439023718237877,-0.05594592168927193,0.05133425444364548,0.0,0.06567065417766571,92,0,487.9853210449219,-0.05133425444364548,900,900,900,900,0.0,0.0,0.0,1.5707963267948966
1729765574236023149,-0.0007044242229312658,-0.002551028272137046,-0.0003762723063118756,-0.14197389781475067,0.014991133473813534,-9.816054344177246,0.00836278684437275,-0.21613352000713348,0.42483314871788025,-0.0010603886330500245,-0.012816301546990871,1.6129920482635498,0.07127632200717926,-0.050305742770433426,0.10570507496595383,0.03418977931141853,-0.05580320954322815,0.05096766725182533,0.0,0.06544417142868042,92,0,487.9855041503906,-0.05096766725182533,900,900,900,900,0.0,0.0,0.0,1.5707963267948966
1729765574247726425,0.0006271583260968328,-0.0001541823148727417,-0.001175218727439642,-0.13119997084140778,-0.001768277958035469,-9.778944969177246,0.00836278684437275,-0.21613352000713348,0.42483314871788025,-0.0010524244280532002,-0.012829156592488289,1.6129825115203857,0.07118599861860275,-0.05022270977497101,0.10554444044828415,0.03413614258170128,-0.05564121529459953,0.05095214396715164,0.0,0.06527803093194962,92,0,487.9856872558594,-0.05095214396715164,900,900,900,900,0.0,0.0,0.0,1.5707963267948966
1729765574255042201,0.004355583339929581,0.0014437122736126184,-0.002506797667592764,-0.14317099750041962,0.05329837277531624,-9.790915489196777,0.00836278684437275,-0.21613352000713348,0.42483314871788025,-0.0010179850505664945,-0.012829811312258244,1.6129541397094727,0.07110357284545898,-0.050155218690633774,0.1054009273648262,0.03366480767726898,-0.05551828071475029,0.05092272907495499,0.0,0.06492764502763748,92,0,487.9858093261719,-0.05092272907495499,900,900,900,900,0.0,0.0,0.0,1.5707963267948966
1729765574263285998,-0.00017179190763272345,0.0035742430482059717,-0.00010995502816513181,-0.12880577147006989,0.0078085316345095634,-9.802885055541992,0.00836278684437275,-0.21613352000713348,0.42483314871788025,-0.001005510799586773,-0.01280863955616951,1.6129463911056519,0.07102776318788528,-0.05010364204645157,0.10527355968952179,0.0334230475127697,-0.05543156713247299,0.05080779641866684,0.0,0.06472834199666977,92,0,487.9859313964844,-0.05080779641866684,900,900,900,900,0.0,0.0,0.0,1.5707963267948966
1729765574271141348,-0.0007044235244393349,0.0003784489817917347,-0.002240483881905675,-0.12521448731422424,0.017385333776474,-9.826828956604004,0.00836278684437275,-0.21613352000713348,0.42483314871788025,-0.001005061436444521,-0.01280294731259346,1.612931728363037,0.07096055150032043,-0.05006606876850128,0.10516081005334854,0.0333293117582798,-0.055114246904850006,0.05050518736243248,0.0,0.06440825760364532,92,0,487.9860534667969,-0.05050518736243248,900,900,900,900,0.0,0.0,0.0,1.5707963267948966
1729765574280626679,-0.0007044286467134953,-0.0006868143100291491,0.0022868900559842587,-0.17309853434562683,-0.010147983208298683,-9.825631141662598,0.00836278684437275,-0.21613352000713348,0.42483314871788025,-0.0010036436142399907,-0.012816821224987507,1.6129145622253418,0.07090115547180176,-0.05004278942942619,0.10506153106689453,0.03317422792315483,-0.055065106600522995,0.05023331567645073,0.0,0.06428604573011398,92,0,487.98614501953125,-0.05023331567645073,900,900,900,900,0.0,0.0,0.0,1.5707963267948966
1729765574289417545,0.0014261092292144895,-0.0009531301911920309,-0.00010995398042723536,-0.13239707052707672,-0.0005711764097213745,-9.813658714294434,0.00836278684437275,-0.21613352000713348,0.42483314871788025,-0.0009916892740875483,-0.01283114030957222,1.612922191619873,0.07085055857896805,-0.05003521218895912,0.1049753725528717,0.033202290534973145,-0.05517154932022095,0.04989778250455856,0.0,0.06439170986413956,92,0,487.9862365722656,-0.04989778250455856,900,900,900,900,0.0,0.0,0.0,1.5707963267948966
1729765574299296516,0.0008934726938605309,0.000378449447453022,-0.0017078525852411985,-0.1347912698984146,0.00900562945753336,-9.823235511779785,0.00836278684437275,-0.21613352000713348,0.42483314871788025,-0.0009840312413871288,-0.012836054898798466,1.6129118204116821,0.07080856710672379,-0.05004219710826874,0.10489054024219513,0.03308263048529625,-0.05500410124659538,0.04970191419124603,0.0,0.06418653577566147,92,0,487.986328125,-0.04970191419124603,900,900,900,900,0.0,0.0,0.0,1.5707963267948966
1729765574306675302,-0.0009707433637231588,-0.00015418208204209805,0.0012216235045343637,-0.14436809718608856,-0.004162479192018509,-9.829222679138184,0.00836278684437275,-0.21613352000713348,0.42483314871788025,-0.0009810207411646843,-0.012838989496231079,1.6129072904586792,0.07077421247959137,-0.05006259307265282,0.10481876134872437,0.03300826624035835,-0.054920829832553864,0.04938548430800438,0.0,0.06407685577869415,92,0,487.98638916015625,-0.04938548430800438,900,900,900,900,0.0,0.0,0.0,1.5707963267948966
1729765574311591936,-0.003367583965882659,-0.0012194502633064985,0.0020205725450068712,-0.15993040800094604,-0.02690739929676056,-9.790915489196777,0.00836278684437275,-0.21613352000713348,0.42483314871788025,-0.0010053341975435615,-0.01285741850733757,1.612929105758667,0.07074867188930511,-0.050097085535526276,0.10475965589284897,0.033160705119371414,-0.0549793615937233,0.04926860332489014,0.0,0.06420562416315079,92,0,487.9864501953125,-0.04926860332489014,900,900,900,900,0.0,0.0,0.0,1.5707963267948966
1729765574319362007,0.0006271566962823272,-0.0004204984288662672,0.0004226788296364248,-0.13119997084140778,0.010202732868492603,-9.762185096740723,0.00836278684437275,-0.21613352000713348,0.42483314871788025,-0.0010041638743132353,-0.012862646952271461,1.6129308938980103,0.07073172181844711,-0.050145458430051804,0.10471508651971817,0.03306685760617256,-0.05489930510520935,0.049431148916482925,0.0,0.0640886202454567,92,0,487.98651123046875,-0.049431148916482925,900,900,900,900,0.0,0.0,0.0,1.5707963267948966
1729765574327955659,-0.002302322071045637,0.0006447657942771912,0.0025532047729939222,-0.11563766747713089,-0.01972479373216629,-9.772956848144531,0.00836278684437275,-0.21613352000713348,0.42483314871788025,-0.0010141065577045083,-0.012859993614256382,1.6129438877105713,0.07072224467992783,-0.050206106156110764,0.10468588024377823,0.03308138996362686,-0.054681722074747086,0.04959540069103241,0.0,0.0639098510146141,92,0,487.9865417480469,-0.04959540069103241,900,900,900,900,0.0,0.0,0.0,1.5707963267948966
1729765574336567585,0.001692419988103211,-0.0009531320538371801,0.002020573941990733,-0.14317099750041962,-0.012542185373604298,-9.823235511779785,0.00836278684437275,-0.21613352000713348,0.42483314871788025,-0.0010018798056989908,-0.012870166450738907,1.6129604578018188,0.07072129100561142,-0.050277844071388245,0.10467033088207245,0.033112820237874985,-0.05442635715007782,0.049424681812524796,0.0,0.06370782852172852,92,0,487.9865417480469,-0.049424681812524796,900,900,900,900,0.0,0.0,0.0,1.5707963267948966
1729765574343804867,0.0008934735087677836,-0.00015418254770338535,0.0009553083800710738,-0.15155068039894104,-0.04606100916862488,-9.804081916809082,0.00836278684437275,-0.21613352000713348,0.42483314871788025,-0.0009975152788683772,-0.012871665880084038,1.6129639148712158,0.07072839140892029,-0.05036139860749245,0.10466614365577698,0.03331548348069191,-0.054422587156295776,0.04923125356435776,0.0,0.06381018459796906,92,0,487.9865417480469,-0.04923125356435776,900,900,900,900,0.0,0.0,0.0,1.5707963267948966
1729765574351956352,-0.000704423408024013,-0.0009531320538371801,-0.00037627192796207964,-0.15274780988693237,-0.007753782905638218,-9.79211139678955,0.00836278684437275,-0.21613352000713348,0.42483314871788025,-0.0009995941072702408,-0.012877527624368668,1.6129627227783203,0.07074474543333054,-0.05045761913061142,0.10467402637004852,0.033441442996263504,-0.054458074271678925,0.049199577420949936,0.0,0.06390627473592758,92,0,487.9865417480469,-0.049199577420949936,900,900,900,900,0.0,0.0,0.0,1.5707963267948966
1729765574359387979,-0.0015033722156658769,0.000378449447453022,-0.0017078528180718422,-0.11204636096954346,0.012596932239830494,-9.780141830444336,0.00836278684437275,-0.21613352000713348,0.42483314871788025,-0.001008157036267221,-0.01287669874727726,1.612950086593628,0.07076813280582428,-0.050565723329782486,0.10467526316642761,0.0332941897213459,-0.05429133027791977,0.0492795966565609,0.0,0.06368713825941086,92,0,487.9865417480469,-0.0492795966565609,900,900,900,900,0.0,0.0,0.0,1.5707963267948966
1729765574368337143,0.0008934730431064963,-0.0004204993601888418,-0.0019741670694202185,-0.12521448731422424,-0.002965378575026989,-9.79450511932373,0.007340040523558855,-0.21653789281845093,0.42990919947624207,-0.0010041181230917573,-0.01288304477930069,1.6129344701766968,0.07079797983169556,-0.05068408325314522,0.10468925535678864,0.03327424079179764,-0.0541079118847847,0.0492202565073967,0.0,0.0635204017162323,92,0,487.9865417480469,-0.0492202565073967,900,900,900,900,0.0,0.0,0.0,1.5707963267948966
1729765574375706828,-0.0004381091275718063,0.001443714601919055,0.0004226770834065974,-0.12042608857154846,0.031750552356243134,-9.771761894226074,0.008634834550321102,-0.20832417905330658,0.4315880835056305,-0.001006838632747531,-0.01287313736975193,1.612931728363037,0.07083426415920258,-0.050812650471925735,0.1047162413597107,0.033099252730607986,-0.053930092602968216,0.0493994802236557,0.0,0.06327728927135468,92,0,487.98651123046875,-0.0493994802236557,900,900,900,900,0.0,0.0,0.0,1.5707963267948966
1729765574383922502,-0.00017178847338072956,-0.0014857633505016565,-0.0025068004615604877,-0.12162318825721741,0.0078085316345095634,-9.786126136779785,0.008634834550321102,-0.20832417905330658,0.4315880835056305,-0.0010075158206745982,-0.012882175855338573,1.6129218339920044,0.07087568938732147,-0.0509510263800621,0.1047561764717102,0.03294140100479126,-0.05374019593000412,0.04944871738553047,0.0,0.06303288787603378,92,0,487.9864501953125,-0.04944871738553047,900,900,900,900,0.0,0.0,0.0,1.5707963267948966
1729765574391203881,0.0008934714132919908,0.003307926934212446,0.0017542578279972076,-0.15394490957260132,-0.02211899310350418,-9.783730506896973,0.008634834550321102,-0.20832417905330658,0.4315880835056305,-0.0010010743280872703,-0.012862227857112885,1.6129268407821655,0.07092391699552536,-0.051099829375743866,0.10480812937021255,0.033102843910455704,-0.053786687552928925,0.04947974160313606,0.0,0.06315699964761734,92,0,487.9864196777344,-0.04947974160313606,900,900,900,900,0.0,0.0,0.0,1.5707963267948966
1729765574399299371,-0.0023023197427392006,0.0006447643972933292,0.00042267650132998824,-0.1587333083152771,0.034144748002290726,-9.783730506896973,0.008634834550321102,-0.20832417905330658,0.4315880835056305,-0.0010108143324032426,-0.012851675041019917,1.61293625831604,0.07097814977169037,-0.05126010626554489,0.1048724502325058,0.03282013162970543,-0.05391194671392441,0.04961863532662392,0.0,0.06311623752117157,92,0,487.9863586425781,-0.04961863532662392,900,900,900,900,0.0,0.0,0.0,1.5707963267948966
1729765574407630624,-0.002568637253716588,-0.0022847119253128767,0.0001563628320582211,-0.14197389781475067,0.011399834416806698,-9.828025817871094,0.008634834550321102,-0.20832417905330658,0.4315880835056305,-0.0010323052993044257,-0.012863331474363804,1.612938404083252,0.07103759050369263,-0.051432009786367416,0.1049475222826004,0.032785579562187195,-0.05401170626282692,0.04938802868127823,0.0,0.06318353116512299,92,0,487.98626708984375,-0.04938802868127823,900,900,900,900,0.0,0.0,0.0,1.5707963267948966
1729765574415216492,-0.0007044236408546567,0.00011213310062885284,-0.0006425867904908955,-0.14915648102760315,0.017385333776474,-9.818449020385742,0.008634834550321102,-0.20832417905330658,0.4315880835056305,-0.001043214462697506,-0.012869521044194698,1.6129374504089355,0.07110225409269333,-0.05161400884389877,0.10499970614910126,0.03262483701109886,-0.053980663418769836,0.049096815288066864,0.0,0.06307370215654373,92,0,487.9862060546875,-0.049096815288066864,900,900,900,900,0.0,0.0,0.0,1.5707963267948966
1729765574423102019,0.001692421967163682,0.0001121333334594965,-0.0014415341429412365,-0.15753620862960815,0.03893314674496651,-9.801688194274902,0.008634834550321102,-0.20832417905330658,0.4315880835056305,-0.001036039786413312,-0.012869201600551605,1.6129310131072998,0.0711711049079895,-0.0518069788813591,0.10506211221218109,0.03231324627995491,-0.05418376252055168,0.04903576523065567,0.0,0.06308744847774506,92,0,487.98614501953125,-0.04903576523065567,900,900,900,900,0.0,0.0,0.0,1.5707963267948966
1729765574430586278,0.00036083863233216107,0.0006447643972933292,0.00122162327170372,-0.11563766747713089,0.010202732868492603,-9.788521766662598,0.008634834550321102,-0.20832417905330658,0.4315880835056305,-0.0010237317765131593,-0.01286130677908659,1.6129332780838013,0.07124409824609756,-0.05200997740030289,0.10513545572757721,0.03219979256391525,-0.054053597152233124,0.049059268087148666,0.0,0.0629175454378128,92,0,487.986083984375,-0.049059268087148666,900,900,900,900,0.0,0.0,0.0,1.5707963267948966
1729765574439491023,-0.0015033696545287967,-0.0004205005243420601,-0.0014415350742638111,-0.1132434606552124,0.0030201254412531853,-9.79330825805664,0.008634834550321102,-0.20832417905330658,0.4315880835056305,-0.0010370335076004267,-0.012860779650509357,1.6129335165023804,0.07132233679294586,-0.05222081020474434,0.10521984845399857,0.032171450555324554,-0.05381854996085167,0.049073223024606705,0.0,0.06270118802785873,92,0,487.9859924316406,-0.049073223024606705,900,900,900,900,0.0,0.0,0.0,1.5707963267948966
1729765574449018605,0.0014261084143072367,0.0001121333334594965,-0.0030394308269023895,-0.16232459247112274,-0.01972479373216629,-9.805278778076172,0.008634834550321102,-0.20832417905330658,0.4315880835056305,-0.0010385653004050255,-0.01287723146378994,1.6129252910614014,0.07140634208917618,-0.05244026705622673,0.10531450808048248,0.0322418250143528,-0.05392112582921982,0.04897604137659073,0.0,0.06282533705234528,92,0,487.98590087890625,-0.04897604137659073,900,900,900,900,0.0,0.0,0.0,1.5707963267948966
1729765574457941572,0.0006271552992984653,0.0009110821411013603,-0.0011752203572541475,-0.14436809718608856,-0.030498702079057693,-9.79211139678955,0.008634834550321102,-0.20832417905330658,0.4315880835056305,-0.0010304730385541916,-0.012872319668531418,1.612910509109497,0.0714968889951706,-0.05266987159848213,0.10541876405477524,0.032457973808050156,-0.05403168871998787,0.0489395409822464,0.0,0.06303128600120544,92,0,487.9858093261719,-0.0489395409822464,900,900,900,900,0.0,0.0,0.0,1.5707963267948966
1729765574464012092,0.0003608409024309367,-0.0009531315881758928,0.0017542571295052767,-0.13239707052707672,-0.008950881659984589,-9.823235511779785,0.008634834550321102,-0.20832417905330658,0.4315880835056305,-0.0010270639322698116,-0.012874789535999298,1.6129255294799805,0.07159405946731567,-0.05290810018777847,0.10553273558616638,0.032538264989852905,-0.053939808160066605,0.04881772771477699,0.0,0.06299398094415665,92,0,487.9856872558594,-0.04881772771477699,900,900,900,900,0.0,0.0,0.0,1.5707963267948966
1729765574471161545,-0.001769691240042448,-0.00042049866169691086,0.0030858374666422606,-0.12760867178440094,-0.02211899682879448,-9.805278778076172,0.008634834550321102,-0.20832417905330658,0.4315880835056305,-0.0010397444711998105,-0.012880410067737103,1.6129471063613892,0.07169733941555023,-0.0531545951962471,0.10565506666898727,0.03269597515463829,-0.053909774869680405,0.04867425188422203,0.0,0.06304990500211716,92,0,487.9855651855469,-0.04867425188422203,900,900,900,900,0.0,0.0,0.0,1.5707963267948966
1729765574479112514,0.0016924254596233368,-0.00148576102219522,0.0006889948272146285,-0.1587333083152771,0.018582437187433243,-9.816054344177246,0.008634834550321102,-0.20832417905330658,0.4315880835056305,-0.0010321477893739939,-0.012888138182461262,1.612964153289795,0.07180683314800262,-0.05340931937098503,0.10579033941030502,0.0327262207865715,-0.05398854613304138,0.04850952327251434,0.0,0.06313294172286987,92,0,487.98541259765625,-0.04850952327251434,900,900,900,900,0.0,0.0,0.0,1.5707963267948966
