Timestamp_ns,Gyro_X,Gyro_Y,Gyro_Z,Acc_X,Acc_Y,Acc_Z,Mag_X,Mag_Y,Mag_Z,Roll,Pitch,Yaw,Pos_X,Pos_Y,Pos_Z,Vel_X,Vel_Y,Vel_Z,Airspeed,Groundspeed,Heading,Throttle,Alt,Climb,Servo1_Raw,Servo2_Raw,Servo3_Raw,Servo4_Raw,Thrust_Vector_X,Thrust_Vector_Y,Thrust_Vector_Z,Thrust_Angle_From_Z
1729774187665476972,0.381229966878891,0.5299972891807556,0.821889340877533,-0.29437148571014404,0.23546293377876282,-8.455370903015137,0.15194447338581085,0.15187318623065948,0.4263094365596771,0.20725196599960327,0.1572140008211136,-0.24001282453536987,1.7218445539474487,-3.451956272125244,-30.24195671081543,0.6529073715209961,-0.7716452479362488,0.17394736409187317,0.0,1.0108038187026978,346,65,518.3110961914062,-0.17394736409187317,1766,1810,1510,1480,0.101768665358402,-0.13210193018285807,0.6282453492013553,0.8915004654147968
1729774187752109241,0.29254668951034546,0.3222655653953552,1.1281553506851196,-0.18782947957515717,0.06786880642175674,-8.620570182800293,0.13299015164375305,0.15766268968582153,0.432407945394516,0.2611169219017029,0.17400360107421875,-0.13064202666282654,1.7855784893035889,-3.5269508361816406,-30.222944259643555,0.5417760014533997,-0.5499213933944702,0.3328862190246582,0.0,0.7719681262969971,352,67,518.2920532226562,-0.3328862190246582,1739,1764,1528,1571,0.11599500347766262,-0.17035516469504147,0.6375141386902273,0.8795289387800335
1729774187949192315,-0.034226302057504654,0.04104819893836975,1.2975221872329712,-0.10967381298542023,-0.011290811002254486,-9.042865753173828,0.14704561233520508,0.14570210874080658,0.43360891938209534,0.30148375034332275,0.14920389652252197,0.029537487775087357,1.855966329574585,-3.592865228652954,-30.173582077026367,0.3562174439430237,-0.2052641063928604,0.5203207731246948,0.0,0.5118129849433899,359,68,518.256591796875,-0.471248596906662,1709,1701,1649,1687,0.10108262635321545,-0.19967404961774823,0.6421157034046009,0.8735414149350856
1729774187991062053,-0.17085044085979462,0.002701780991628766,1.2908637523651123,-0.10249122977256775,-0.036429937928915024,-9.003360748291016,0.15434472262859344,0.1363954246044159,0.4336712658405304,0.3042818605899811,0.1185801699757576,0.12956199049949646,1.8835482597351074,-3.6102166175842285,-30.147594451904297,0.270175963640213,-0.04978976026177406,0.5956030488014221,0.0,0.27472543716430664,7,67,518.2167358398438,-0.5956030488014221,1668,1693,1686,1636,0.07926265328401705,-0.199327771538722,0.6347329133484294,0.8831334954589914
1729774188057793496,0.09466756135225296,0.0389256551861763,1.2312089204788208,-0.043833281844854355,-0.12262122333049774,-8.578389167785645,0.1686265617609024,0.11737693101167679,0.4384068250656128,0.3104515075683594,0.08347073942422867,0.25164005160331726,1.9124547243118286,-3.6153628826141357,-30.09541893005371,0.14305081963539124,0.17062827944755554,0.7261173725128174,0.0,0.22266016900539398,13,66,518.16455078125,-0.7261173725128174,1651,1665,1673,1669,0.05502673748652704,-0.20092048927555436,0.6262611397419297,0.8940481951315684
1729774188156189173,0.1940039098262787,0.016282903030514717,1.1518471240997314,-0.09530866146087646,-0.29380664229393005,-8.651412963867188,0.1842600554227829,0.08764304220676422,0.4354485273361206,0.3353233337402344,0.04834651201963425,0.36620140075683594,1.9277452230453491,-3.5947823524475098,-30.019317626953125,0.008637556806206703,0.39735639095306396,0.8957291841506958,0.0,0.3974502682685852,20,66,518.0884399414062,-0.8957291841506958,1674,1654,1664,1671,0.031896268899106135,-0.21693540023368985,0.6225123775120979,0.8988474514361418
1729774188255516293,-0.015586878173053265,0.05143458768725395,1.064495325088501,-0.06897243857383728,-0.3871805667877197,-8.735210418701172,0.1879299432039261,0.08082161098718643,0.43624046444892883,0.34956488013267517,0.013456236571073532,0.4718928933143616,1.9273886680603027,-3.5523996353149414,-29.931333541870117,-0.11918102204799652,0.6113563776016235,1.0410397052764893,0.0,0.6228649616241455,26,67,518.0004272460938,-1.0410397052764893,1683,1655,1679,1673,0.00901540642647667,-0.2294468790608978,0.629422633956056,0.8899863494702586
1729774188357609648,-0.10347270220518112,0.08446900546550751,0.981650710105896,-0.0867859348654747,-0.423321932554245,-8.991125106811523,0.19583705067634583,0.04968433827161789,0.43630778789520264,0.33991411328315735,-0.013801796361804008,0.5705261826515198,1.9226667881011963,-3.486877918243408,-29.832582473754883,-0.24868886172771454,0.8358777761459351,1.1748476028442383,0.0,0.8720881938934326,32,68,517.9017333984375,-1.1748476028442383,1676,1685,1684,1667,-0.00938492356437582,-0.22669456895858636,0.6410315870644532,0.8749547523271166
1729774188458901433,-0.07417868822813034,0.09938080608844757,0.9203980565071106,-0.15741488337516785,-0.5178928971290588,-8.853458404541016,0.1971830576658249,0.03315214812755585,0.4354371428489685,0.330241858959198,-0.03705330938100815,0.663094699382782,1.9046424627304077,-3.404512882232666,-29.727174758911133,-0.3691583573818207,1.031233549118042,1.2869609594345093,0.0,1.0953174829483032,37,68,517.7963256835938,-1.2869609594345093,1683,1678,1679,1664,-0.025190485252374693,-0.2203534893630017,0.6428139537831296,0.8726302357252406
1729774188558258455,-0.11785539239645004,0.13639898598194122,0.8729937672615051,-0.21367862820625305,-0.6052812337875366,-9.201814651489258,0.19717203080654144,0.017511550337076187,0.4355173707008362,0.31644904613494873,-0.05443083867430687,0.7520103454589844,1.8688592910766602,-3.2927916049957275,-29.596561431884766,-0.5004718899726868,1.2260956764221191,1.4034106731414795,0.0,1.3243045806884766,42,70,517.6657104492188,-1.4034106731414795,1709,1708,1701,1688,-0.03808277582731371,-0.21751311225479775,0.664257290650632,0.8442965337468515
1729774188759463929,-0.23396989703178406,0.20750507712364197,0.8095903992652893,-0.33217957615852356,-0.7264597415924072,-9.916704177856445,0.1792067140340805,-0.02974008582532406,0.4455791413784027,0.27186065912246704,-0.06856781244277954,0.9159227609634399,1.7605210542678833,-3.0179736614227295,-29.325578689575195,-0.7613964676856995,1.561302900314331,1.4782308340072632,0.0,1.737064003944397,52,72,517.3947143554688,-1.4782308340072632,1725,1725,1727,1721,-0.0493301490938431,-0.19288312630360926,0.6919267562233196,0.8066419183398615
1729774188853136576,-0.3751162886619568,0.14571894705295563,0.7962754368782043,-0.3824578821659088,-0.7647668123245239,-9.98852825164795,0.17311935126781464,-0.04653070494532585,0.446636438369751,0.2343771606683731,-0.0714138075709343,0.9979748725891113,1.690885066986084,-2.8623275756835938,-29.194353103637695,-0.8741599917411804,1.6838639974594116,1.4726024866104126,0.0,1.8972489833831787,57,73,517.2634887695312,-1.4726024866104126,1733,1743,1706,1720,-0.05208777914873561,-0.16910105063199132,0.7082313872870288,0.7838064627705463
1729774188952941936,-0.4693932831287384,0.09299022704362869,0.7949429750442505,-0.5009707808494568,-0.7420220375061035,-10.162109375,0.15114183723926544,-0.08656376600265503,0.44751325249671936,0.18470288813114166,-0.0773068368434906,1.0781384706497192,1.6015198230743408,-2.6815290451049805,-29.050046920776367,-0.9727526903152466,1.7833114862442017,1.4459106922149658,0.0,2.0313658714294434,61,74,517.119140625,-1.4459106922149658,1741,1754,1716,1721,-0.057150094749114234,-0.13549841423618753,0.7252406817116962,0.7594124204992461
1729774189049099989,-0.4805796444416046,0.09858217090368271,0.7896161675453186,-0.5500519275665283,-0.7228684425354004,-10.37279987335205,0.14594322443008423,-0.10852950811386108,0.44557657837867737,0.1305423378944397,-0.08079773187637329,1.1578545570373535,1.5093719959259033,-2.5065081119537354,-28.91797637939453,-1.0325967073440552,1.846816062927246,1.3978763818740845,0.0,2.115888833999634,66,74,516.9871215820312,-1.3978763818740845,1748,1762,1735,1722,-0.05972528822483034,-0.09601294086872295,0.7313100608717209,0.7505555656818952
1729774189148801713,-0.4534154236316681,0.1526413857936859,0.7853333353996277,-0.5885916352272034,-0.673008382320404,-10.111800193786621,0.12610143423080444,-0.1539110541343689,0.43862298130989075,0.07739149779081345,-0.07634545862674713,1.2372844219207764,1.4074302911758423,-2.3020670413970947,-28.7874813079834,-1.0546373128890991,1.8929780721664429,1.3442561626434326,0.0,2.1669392585754395,71,72,516.8566284179688,-1.3442561626434326,1751,1760,1750,1731,-0.05491534704818054,-0.05550412097997463,0.7157538663624656,0.773093324179414
1729774189248469460,-0.31706202030181885,0.26822519302368164,0.7850658893585205,-0.6508407592773438,-0.5544953346252441,-9.816116333007812,0.11319567263126373,-0.17361891269683838,0.43356236815452576,0.03227592632174492,-0.05870506167411804,1.3165589570999146,1.311155080795288,-2.1118946075439453,-28.667142868041992,-1.0433398485183716,1.900905728340149,1.3293752670288086,0.0,2.168409585952759,75,72,516.7362670898438,-1.3293752670288086,1732,1749,1730,1691,-0.04224337086877091,-0.02319460732748328,0.7183853477128883,0.7693178837558079
1729774189355415081,0.011043130420148373,0.08686435222625732,0.7848005294799805,-0.6077452301979065,-0.44196784496307373,-9.694011688232422,0.0766037106513977,-0.20098376274108887,0.4325118958950043,0.01634356938302517,-0.04099945351481438,1.39529287815094,1.2072546482086182,-1.908090591430664,-28.534326553344727,-1.0162888765335083,1.885071873664856,1.3327603340148926,0.0,2.141573905944824,80,72,516.6034545898438,-1.3327603340148926,1704,1767,1717,1717,-0.029511337036435978,-0.011756957709423633,0.7192988634300354,0.7680038000740317
1729774189455309832,0.15138936042785645,-0.09503328800201416,0.7917249202728271,-0.662811815738678,-0.4311939775943756,-9.689223289489746,0.06397654861211777,-0.20218691229820251,0.43128299713134766,0.025147708132863045,-0.04640328139066696,1.4742776155471802,1.1126043796539307,-1.7231478691101074,-28.4090576171875,-0.9928780794143677,1.8634058237075806,1.3414134979248047,0.0,2.1114184856414795,84,72,516.4781494140625,-1.3414134979248047,1711,1755,1692,1712,-0.03339837366736742,-0.01808495315648042,0.71899755431135,0.7684374277879857
1729774189552408085,0.08401321619749069,-0.09557168185710907,0.7951779365539551,-0.7069055438041687,-0.39570310711860657,-9.665971755981445,0.05573979392647743,-0.20368492603302002,0.4335339367389679,0.03249967098236084,-0.059430260211229324,1.5533416271209717,1.010629415512085,-1.5163087844848633,-28.281959533691406,-0.9787808656692505,1.852699637413025,1.3466100692749023,0.0,2.095353841781616,89,71,516.35107421875,-1.3466100692749023,1733,1731,1713,1723,-0.04217065037135651,-0.02302997420942912,0.708372258445494,0.7836069030306393
1729774189652557354,0.00544910691678524,-0.006089322734624147,0.7866557836532593,-0.7368330955505371,-0.35380449891090393,-9.62167739868164,0.039074886590242386,-0.2027498185634613,0.43445971608161926,0.030832532793283463,-0.06620011478662491,1.6323412656784058,0.9168670773506165,-1.3283665180206299,-28.160890579223633,-0.9719479084014893,1.8478295803070068,1.3559101819992065,0.0,2.0878593921661377,93,71,516.2300415039062,-1.3559101819992065,1732,1729,1703,1700,-0.04696775826763995,-0.021839686737949525,0.7081080833929949,0.783981103733923
1729774189753259446,-0.01372527051717043,0.04770757257938385,0.786922037601471,-0.7667605876922607,-0.25085386633872986,-9.638437271118164,0.026057621464133263,-0.20441678166389465,0.4340870976448059,0.024744780734181404,-0.06560840457677841,1.7112869024276733,0.8154981732368469,-1.1280170679092407,-28.025440216064453,-0.9670701622962952,1.840535044670105,1.3691973686218262,0.0,2.0791330337524414,98,71,516.0945434570312,-1.3691973686218262,1731,1727,1715,1712,-0.04654855605070328,-0.01752920677681392,0.7082555745205047,0.7837722016923205
1729774189854344002,-0.008397934027016163,0.024271346628665924,0.7855905294418335,-0.7535924911499023,-0.182619109749794,-9.655197143554688,-0.00034065189538523555,-0.2033919245004654,0.4373367428779602,0.01870451122522354,-0.06368499994277954,1.7901679277420044,0.7221119999885559,-0.9458052515983582,-27.897111892700195,-0.9625886678695679,1.8311983346939087,1.3809162378311157,0.0,2.0687832832336426,102,72,515.9662475585938,-1.3809162378311157,1721,1739,1699,1707,-0.04582221116774383,-0.013439163551984682,0.7184147227380029,0.7692756558239389
1729774189955039964,0.00199273694306612,-0.0023635486140847206,0.7847931981086731,-0.7733114957809448,-0.1329309195280075,-9.658854484558105,-0.014299871399998665,-0.20388245582580566,0.43225526809692383,0.013455378822982311,-0.06408291310071945,1.8689851760864258,0.6172949075698853,-0.7452675104141235,-27.76338768005371,-0.9582396745681763,1.8218739032745361,1.389653205871582,0.0,2.0585062503814697,107,72,515.83251953125,-1.389653205871582,1727,1736,1712,1720,-0.0461081242173742,-0.009667695629897614,0.718457080515157,0.7692147613541033
1729774190157938625,0.0017257300205528736,-0.012217245995998383,0.7837278842926025,-0.8223927021026611,-0.08384978771209717,-9.685190200805664,-0.03149477764964104,-0.20340989530086517,0.43494394421577454,0.0071636224165558815,-0.06657624244689941,1.9696276187896729,0.4819936752319336,-0.4882446229457855,-27.58232307434082,-0.9513816833496094,1.8072313070297241,1.4051203727722168,0.0,2.0470547676086426,111,72,515.7054443359375,-1.4009339809417725,1727,1739,1698,1708,-0.04789949133578227,-0.0051463376207382455,0.7183864934273658,0.7693162367737567
1729774190191457439,0.00039449805626645684,-0.015146579593420029,0.7805321216583252,-0.769720196723938,-0.031177349388599396,-9.676811218261719,-0.046719279140233994,-0.2012377381324768,0.4338885247707367,0.0030202355701476336,-0.06811660528182983,2.0324857234954834,0.41905897855758667,-0.36921823024749756,-27.494909286499023,-0.9493204951286316,1.8010364770889282,1.4108822345733643,0.0,2.0359129905700684,116,72,515.5640258789062,-1.4108822345733643,1728,1742,1697,1708,-0.04900603832174327,-0.002169523400261001,0.7183270156246552,0.7694017333216022
1729774190265392244,-0.033160097897052765,-0.02659926936030388,0.7488403916358948,-0.7721143960952759,0.04184581711888313,-9.778565406799316,-0.05502565950155258,-0.1994265764951706,0.4335075318813324,-0.0030586249195039272,-0.07000713795423508,2.1105196475982666,0.325384259223938,-0.1925371140241623,-27.361801147460938,-0.9455149173736572,1.792671799659729,1.417800784111023,0.0,2.0267388820648193,120,72,515.430908203125,-1.417800784111023,1681,1673,1769,1781,-0.05036397682257925,0.0021968122056774592,0.7182330010899999,0.7695368594084508
1729774190364922385,-0.10186900943517685,-0.028735127300024033,0.47932398319244385,-0.7555508613586426,0.1320943385362625,-9.760622024536133,-0.0745057463645935,-0.1941203773021698,0.43328607082366943,-0.01484889630228281,-0.07252727448940277,2.174199104309082,0.22575801610946655,0.0019078640034422278,-27.22437858581543,-0.939656674861908,1.7911077737808228,1.4125856161117554,0.0,2.022627353668213,124,71,515.2935180664062,-1.4125856161117554,1633,1636,1790,1802,-0.051449231602344284,0.010514613695712492,0.7080553788132382,0.784055742318311
1729774190465146370,-0.0507362075150013,-0.008494769223034382,0.15122255682945251,-0.7782956957817078,0.15005084872245789,-9.650487899780273,-0.081344835460186,-0.19171854853630066,0.43363338708877563,-0.025599146261811256,-0.07373956590890884,2.206355333328247,0.13466255366802216,0.17972834408283234,-27.095211029052734,-0.9309449791908264,1.79298996925354,1.4168422222137451,0.0,2.0202651023864746,126,71,515.164306640625,-1.4168422222137451,1657,1663,1781,1781,-0.05230765768566769,0.018124022020763825,0.7078385612364092,0.7843627338841528
1729774190666181073,0.0754975825548172,-0.013021960854530334,-0.20590740442276,-0.7962521910667419,0.14765664935112,-9.6648530960083,-0.08648135513067245,-0.19229835271835327,0.4295712411403656,-0.0191205907613039,-0.07560183852910995,2.19425630569458,-0.058981794863939285,0.5610542893409729,-26.805500030517578,-0.9085570573806763,1.796836018562317,1.440280556678772,0.0,2.0134785175323486,125,72,514.8746337890625,-1.440280556678772,1673,1684,1747,1761,-0.05438148502890259,0.013726664548616648,0.7178121152268335,0.7701415632846136
1729774190765621765,0.06032054126262665,-0.019418083131313324,-0.26236826181411743,-0.790380597114563,0.09105246514081955,-9.685067176818848,-0.07852230221033096,-0.1911897510290146,0.43417397141456604,-0.009872863069176674,-0.07773208618164062,2.1696228981018066,-0.14834941923618317,0.7391883730888367,-26.675867080688477,-0.905616283416748,1.7973573207855225,1.446027398109436,0.0,2.0126187801361084,124,72,514.7449951171875,-1.446027398109436,1700,1708,1725,1744,-0.05591075761825753,0.00708688144213957,0.7177908910636701,0.7701720469186006
1729774190863811740,0.027829671278595924,-0.013026741333305836,-0.2485198676586151,-0.8119285702705383,0.07788436114788055,-9.693446159362793,-0.07283245027065277,-0.19111531972885132,0.4345099627971649,-0.0039212401024997234,-0.07956667244434357,2.1437058448791504,-0.2372475564479828,0.915797770023346,-26.542888641357422,-0.9069152474403381,1.7962749004364014,1.4519426822662354,0.0,2.012237310409546,122,72,514.6119995117188,-1.4519426822662354,1714,1722,1713,1728,-0.05722757627970427,0.0028143534459344694,0.7177165763223196,0.7702787754216298
1729774190964599924,-0.005193418823182583,-0.011961380951106548,-0.21230089664459229,-0.7867892980575562,0.07549014687538147,-9.703022956848145,-0.06932461261749268,-0.18960323929786682,0.4314265251159668,-0.001538977725431323,-0.08077655732631683,2.1207275390625,-0.33343032002449036,1.1056580543518066,-26.39574432373047,-0.9100323915481567,1.794490098953247,1.4594426155090332,0.0,2.012052059173584,121,72,514.46484375,-1.4594426155090332,1730,1734,1716,1725,-0.05809589529361839,0.0011044505147104154,0.7176514802737423,0.7703722546814084
1729774191065848362,-0.014248169027268887,-0.017820503562688828,-0.16436398029327393,-0.8107314705848694,0.013240888714790344,-9.785622596740723,-0.06335338950157166,-0.18797984719276428,0.43872395157814026,-0.0011860253289341927,-0.08213070780038834,2.102159023284912,-0.42228180170059204,1.2799516916275024,-26.25816535949707,-0.9123921990394592,1.7944623231887817,1.461197018623352,0.0,2.0130958557128906,120,72,514.3272705078125,-1.461197018623352,1725,1738,1707,1719,-0.0590676509737898,0.0008510595557183402,0.7175724968991434,0.7704856643358827
1729774191161512465,-0.006522960029542446,-0.01676173321902752,-0.11909319460391998,-0.792712926864624,-0.0030806283466517925,-9.757739067077637,-0.0615067183971405,-0.1941247135400772,0.43402355909347534,-0.0010744371684268117,-0.08367293328046799,2.088130474090576,-0.518541157245636,1.4710237979888916,-26.114015579223633,-0.9143639802932739,1.7979624271392822,1.4599136114120483,0.0,2.0171093940734863,119,72,514.1831665039062,-1.4599136114120483,1736,1741,1719,1723,-0.06017423965697397,0.0007708881622657972,0.7174806384935737,0.7706175441629053
1729774191360790654,0.0006675113108940423,-0.0015816204249858856,-0.06716154515743256,-0.7843332290649414,0.020861409604549408,-9.766119956970215,-0.05673035979270935,-0.19492238759994507,0.43909215927124023,-0.0004861317574977875,-0.0847158133983612,2.0762507915496826,-0.644672691822052,1.7202234268188477,-25.922807693481445,-0.9193776249885559,1.8038030862808228,1.4593111276626587,0.0,2.0219476222991943,119,72,514.048583984375,-1.4595720767974854,1732,1738,1720,1725,-0.06092245352337719,0.00034875961471856633,0.7174178231849436,0.7707077169094024
1729774191398127228,-0.0033272216096520424,-0.0005163839086890221,-0.04452468082308769,-0.8058810234069824,0.007693284656852484,-9.750557899475098,-0.057825662195682526,-0.1949392557144165,0.43250516057014465,-0.000127513034385629,-0.08480733633041382,2.071505546569824,-0.7041674852371216,1.8371641635894775,-25.83156394958496,-0.9213300347328186,1.8065584897994995,1.4600942134857178,0.0,2.027930498123169,118,72,513.9006958007812,-1.4600942134857178,1721,1734,1712,1725,-0.0609881134585719,9.14794227477053e-05,0.7174123233178251,0.7707156116900029
1729774191476396836,-0.0011966932797804475,-0.004511133302003145,-0.02721412293612957,-0.7915158271789551,0.008890382945537567,-9.781682968139648,-0.05401841923594475,-0.19380275905132294,0.4333513677120209,1.348214027530048e-05,-0.08505841344594955,2.0680246353149414,-0.793513298034668,2.0123274326324463,-25.693500518798828,-0.922498881816864,1.8101508617401123,1.4608584642410278,0.0,2.0316619873046875,118,72,513.7626342773438,-1.4608584642410278,1731,1737,1725,1729,-0.06116823735259548,-9.67204690344082e-06,0.7173969937528509,0.7707376161650952
1729774191670816765,0.00013810000382363796,-0.0029155565425753593,-0.0037792669609189034,-0.8043352365493774,-0.016696328297257423,-9.756194114685059,-0.05669842287898064,-0.19785119593143463,0.43666836619377136,0.0002756739850156009,-0.08634358644485474,2.0653553009033203,-0.982812762260437,2.379918336868286,-25.41474723815918,-0.92960524559021,1.819312572479248,1.4578660726547241,0.0,2.0430526733398438,118,73,513.48388671875,-1.4578660726547241,1718,1732,1715,1727,-0.06295252924419616,-0.00020049232123676633,0.7272805090641352,0.7564450466422958
1729774191764987948,0.0030676305759698153,0.18297308683395386,-0.0019151511369273067,-0.8725700378417969,-0.015499221161007881,-10.221866607666016,-0.05379265174269676,-0.1953241527080536,0.43653348088264465,-0.00010088990529766306,-0.07756710797548294,2.065119981765747,-1.0811593532562256,2.5705645084381104,-25.267959594726562,-0.9301564693450928,1.8193224668502808,1.4264057874679565,0.0,2.0433123111724854,118,75,513.3370971679688,-1.4264057874679565,1750,1731,1747,1730,-0.05811701170070606,7.543991050022833e-05,0.7477448811324622,0.7261371087063074
1729774191863511060,0.05872733145952225,0.39442822337150574,0.0028782635927200317,-0.7839845418930054,0.04794713854789734,-10.464879035949707,-0.06391220539808273,-0.19397911429405212,0.43556177616119385,0.0029370326083153486,-0.045640572905540466,2.0652947425842285,-1.1713502407073975,2.745431900024414,-25.135669708251953,-0.9226754903793335,1.8027973175048828,1.3682031631469727,0.0,2.025193214416504,118,75,513.2047729492188,-1.3682031631469727,1757,1743,1763,1735,-0.03421854689956462,-0.0022004774330837916,0.7492157559389342,0.7239191177178093
1729774191964393631,0.05499907210469246,0.3837754726409912,0.004210261162370443,-0.7169469594955444,-0.0238789115101099,-10.571420669555664,-0.08442193269729614,-0.1917658895254135,0.43171343207359314,0.009782142005860806,-0.003773330943658948,2.0657541751861572,-1.2684361934661865,2.93282151222229,-25.003055572509766,-0.9022501111030579,1.7513463497161865,1.289557933807373,0.0,1.9700937271118164,118,75,513.0722045898438,-1.289557933807373,1752,1766,1751,1765,-0.0028299914921507876,-0.007336437269436162,0.7499587774246969,0.722796568287327
1729774192061811260,-0.02569449506700039,0.1496836096048355,0.006607409566640854,-0.7133556604385376,-0.005922403186559677,-10.480440139770508,-0.09575203061103821,-0.19328820705413818,0.4305674135684967,0.010476582683622837,0.021117886528372765,2.066560745239258,-1.3554019927978516,3.099240779876709,-24.88665008544922,-0.8731350898742676,1.6769388914108276,1.2206618785858154,0.0,1.890631914138794,118,75,512.9557495117188,-1.2206618785858154,1738,1775,1729,1782,0.015837237692399343,-0.007855541302080098,0.7497916193004066,0.7230492335736518
1729774192264509046,-0.05978301912546158,-0.05404826998710632,0.0031449338421225548,-0.6558947563171387,-0.010710802860558033,-10.421782493591309,-0.10093361884355545,-0.192684143781662,0.430719792842865,0.005117158871144056,0.023633459582924843,2.0673255920410156,-1.4456825256347656,3.2704288959503174,-24.765974044799805,-0.8338934779167175,1.5902303457260132,1.153472900390625,0.0,1.7956087589263916,118,75,512.8350830078125,-1.153472900390625,1743,1756,1747,1752,0.017723444702992315,-0.0038367806561326366,0.7497807403648461,0.7230656749536307
1729774192278515650,-0.025694534182548523,-0.06496722996234894,0.0031450449023395777,-0.6654715538024902,-0.016696317121386528,-10.384673118591309,-0.09908141940832138,-0.1932774931192398,0.42880764603614807,0.0004991809255443513,0.016656626015901566,2.0678319931030273,-1.5250258445739746,3.420342445373535,-24.659412384033203,-0.7963650822639465,1.5173356533050537,1.0965113639831543,0.0,1.713623285293579,118,75,512.728515625,-1.0965113639831543,1752,1750,1753,1748,0.012491891861506944,-0.0003743337444321493,0.7498958677789658,0.722891666884879
1729774192373170545,-0.0046408511698246,-0.0109174195677042,0.0012735356576740742,-0.6009830236434937,-0.03079579584300518,-10.401110649108887,-0.1010076254606247,-0.19523662328720093,0.4284053444862366,-0.00090469402493909,0.012523842044174671,2.068178415298462,-1.6116608381271362,3.579005479812622,-24.553695678710938,-0.7588037252426147,1.4509493112564087,1.035438895225525,0.0,1.6373872756958008,118,74,512.622802734375,-1.035438895225525,1747,1745,1748,1745,0.009267400848173617,0.0006694209854903453,0.7399416646986865,0.7378126944757898
1729774192471165769,0.0006854931707493961,0.039682649075984955,0.0007409069803543389,-0.5722525715827942,0.005117256660014391,-10.350831985473633,-0.09751458466053009,-0.19809387624263763,0.4271104037761688,-0.000992789980955422,0.014426439069211483,2.068324089050293,-1.6876287460327148,3.71897554397583,-24.46065330505371,-0.7244001030921936,1.391903042793274,0.9803541302680969,0.0,1.5691238641738892,118,74,512.52978515625,-0.9803541302680969,1745,1747,1745,1749,0.010675194611493221,0.0007345880165762145,0.7399226314963293,0.7378409889985743
1729774192569298655,-0.009700858034193516,0.04287844896316528,-0.0016559709329158068,-0.538733720779419,-0.0164305679500103,-10.385547637939453,-0.09632138907909393,-0.19443801045417786,0.4294903874397278,-0.0015362793346866965,0.018858332186937332,2.0682477951049805,-1.765001654624939,3.8631155490875244,-24.364103317260742,-0.6880581974983215,1.3276045322418213,0.9239360094070435,0.0,1.495311975479126,118,74,512.4332275390625,-0.9239360094070435,1736,1744,1736,1745,0.013954338671538596,0.0011366441143480848,0.7398675452217088,0.7379228746099228
1729774192777727610,-0.016358772292733192,0.016246823593974113,-0.0021885428577661514,-0.5291569232940674,-0.005656673107296228,-10.244288444519043,-0.1006263867020607,-0.1985575407743454,0.4292798936367035,-0.0026970221661031246,0.022267498075962067,2.068019390106201,-1.832071304321289,3.9893991947174072,-24.279069900512695,-0.6530411243438721,1.267160415649414,0.8767154812812805,0.0,1.4255378246307373,118,74,512.3482055664062,-0.8767154812812805,1739,1744,1739,1744,0.01647658686826295,0.0019952992051034263,0.7398138555516885,0.738002677076482
1729774192968065349,-0.02167586050927639,0.010651363991200924,0.0001982151297852397,-0.45827579498291016,0.00579723808914423,-10.181557655334473,-0.09933079779148102,-0.19948862493038177,0.4267497658729553,-0.006309818476438522,0.024312550202012062,2.0675649642944336,-1.9669702053070068,4.236856937408447,-24.122663497924805,-0.5818454027175903,1.1482683420181274,0.797100841999054,0.0,1.2872700691223145,118,73,512.1917724609375,-0.797100841999054,1732,1736,1734,1737,0.017746413209131846,0.00460477564607986,0.7297697313944036,0.7528112378986735
1729774193063587470,0.01108101662248373,-0.001865518745034933,-0.004329153802245855,-0.4295453429222107,-0.00617379043251276,-10.134869575500488,-0.10141646862030029,-0.20014669001102448,0.42389243841171265,-0.006779258139431477,0.024848677217960358,2.0671041011810303,-2.0292766094207764,4.3550028800964355,-24.044477462768555,-0.542975664138794,1.089755892753601,0.7641497850418091,0.0,1.2175346612930298,118,73,512.1135864257812,-0.7641497850418091,1725,1740,1733,1734,0.018137667697056447,0.004947292772252495,0.7297578703273688,0.7528285862654879
1729774193261535238,0.0401151180267334,-0.024766484275460243,-0.0006112572154961526,-0.39162030816078186,-0.01658841222524643,-10.067405700683594,-0.10270527750253677,-0.19785445928573608,0.42710551619529724,-0.0009606446255929768,0.0216200053691864,2.0667834281921387,-2.1043832302093506,4.499403476715088,-23.947824478149414,-0.4966834485530853,1.0156992673873901,0.7199892401695251,0.0,1.1550254821777344,118,73,512.04345703125,-0.7320481538772583,1733,1730,1730,1733,0.015781374418602764,0.0007011065796615106,0.7298290598976063,0.7527244573555802
1729774193300425918,0.0401151180267334,-0.024233849719166756,-0.0022091905120760202,-0.37126970291137695,-0.01060289703309536,-10.094938278198242,-0.1009010449051857,-0.19554531574249268,0.4261775016784668,0.0020686022471636534,0.019862016662955284,2.0665283203125,-2.138645887374878,4.563513278961182,-23.90646743774414,-0.4795386493206024,0.9816552400588989,0.7003282308578491,0.0,1.0925220251083374,118,73,511.9755859375,-0.7003282308578491,1731,1730,1728,1732,0.014498318856327408,-0.0015097807104797283,0.7298544507725815,0.7526873153486917
1729774193372599068,0.010820346884429455,-0.009586453437805176,-0.0016765426844358444,-0.35211601853370667,-0.034544918686151505,-10.155991554260254,-0.10474123060703278,-0.1953890174627304,0.42546021938323975,0.004709032364189625,0.017972877249121666,2.0663301944732666,-2.1871283054351807,4.655531883239746,-23.845111846923828,-0.45650824904441833,0.9334653615951538,0.6707859039306641,0.0,1.0391137599945068,118,73,511.91424560546875,-0.6707859039306641,1735,1731,1731,1733,0.013119494045973026,-0.003437025724939012,0.7298740067505787,0.7526587076790192
1729774193571495305,-0.022469164803624153,0.0050609540194272995,0.0007203230052255094,-0.31021755933761597,-0.012997105717658997,-10.029098510742188,-0.10159622132778168,-0.19483447074890137,0.4257216155529022,0.0024068793281912804,0.01824202761054039,2.066344738006592,-2.278634786605835,4.832263946533203,-23.72290802001953,-0.4120391309261322,0.8383117318153381,0.6054765582084656,0.0,0.9340999722480774,118,72,511.7920227050781,-0.6054765582084656,1726,1729,1726,1728,0.013133531440326286,-0.0017326631126207259,0.7198781203998661,0.7671696174492141
1729774193662070658,-0.020599406212568283,0.008793555200099945,0.00045483201392926276,-0.28667888045310974,-0.02995537966489792,-10.102713584899902,-0.10061997175216675,-0.19866423308849335,0.4245489537715912,0.0005651710089296103,0.01902453787624836,2.066310405731201,-2.3242075443267822,4.915480136871338,-23.666820526123047,-0.38960930705070496,0.7915631532669067,0.5760300755500793,0.0,0.8822514414787292,118,72,511.7359313964844,-0.5760300755500793,1728,1729,1729,1729,0.013696841012788882,-0.00040684946752876265,0.7198695930651475,0.7671819028178346
1729774193862880374,0.024408016353845596,-0.017305439338088036,-0.0008767416002228856,-0.2854817807674408,-0.028758279979228973,-10.119473457336426,-0.09862244874238968,-0.1967950463294983,0.4244605004787445,0.000883137749042362,0.018487999215722084,2.066189765930176,-2.3790478706359863,5.017334938049316,-23.5965518951416,-0.35846325755119324,0.7344686388969421,0.5338618159294128,0.0,0.8320269584655762,118,72,511.681884765625,-0.5438699126243591,1727,1730,1727,1730,0.013310601130937344,-0.0006357504294875404,0.7198766725758825,0.7671717033466252
1729774193902053089,0.0217448640614748,-0.01916964165866375,-0.0011430666781961918,-0.29027023911476135,-0.05509449169039726,-10.06679916381836,-0.09837368875741959,-0.19669848680496216,0.4275388717651367,0.002714963862672448,0.017115280032157898,2.066120147705078,-2.4028966426849365,5.062763690948486,-23.56481170654297,-0.34533753991127014,0.7083871960639954,0.5134488940238953,0.0,0.7880802154541016,118,72,511.6339416503906,-0.5134488940238953,1725,1721,1722,1724,0.01232239999671552,-0.0019544852782984244,0.7198918935823753,0.7671497740340079
1729774193971336952,0.008695302531123161,-0.002125420607626438,0.02548856846988201,-0.2543572187423706,-0.00122495973482728,-10.294248580932617,-0.09702596068382263,-0.1968604326248169,0.427487850189209,0.003889648476615548,0.015885790809988976,2.066288948059082,-2.4366729259490967,5.128004550933838,-23.51842498779297,-0.3271568715572357,0.6717016696929932,0.4903366267681122,0.0,0.747137725353241,118,73,511.5875549316406,-0.4903366267681122,1818,1813,1705,1645,0.011596139546492176,-0.002839077957919627,0.7299023696248473,0.7526172151950143
1729774194172893480,0.19219738245010376,0.31532609462738037,0.5791457891464233,-0.1944461166858673,-0.08050302416086197,-11.532687187194824,-0.11434295773506165,-0.18383163213729858,0.4310895502567291,0.030663780868053436,0.04902219772338867,2.1205995082855225,-2.5085513591766357,5.248439311981201,-23.448034286499023,-0.3005003333091736,0.5583796501159668,0.259416788816452,0.0,0.634104311466217,121,77,511.51715087890625,-0.259416788816452,1863,1858,1697,1660,0.03773197524669134,-0.023579050615479807,0.7687134228150668,0.693969168924004
1729774194368682177,-0.022719571366906166,0.13130101561546326,0.9125736951828003,-0.14416787028312683,-0.02423926256597042,-12.09292984008789,-0.14675083756446838,-0.16383053362369537,0.42921683192253113,0.048429686576128006,0.07552766054868698,2.224480628967285,-2.551943778991699,5.313216209411621,-23.43327522277832,-0.27979522943496704,0.4154936671257019,-0.008320103399455547,0.0,0.5352307558059692,126,79,511.5027160644531,-0.06065487489104271,1838,1852,1741,1765,0.059610140472686556,-0.03813546866874278,0.7868241971255344,0.6651500328601236
1729774194406413990,-0.08503788709640503,0.009596813470125198,1.0097789764404297,-0.1537446677684784,-0.035013165324926376,-12.242568016052246,-0.15909534692764282,-0.1558486968278885,0.4277896285057068,0.049227431416511536,0.07637692242860794,2.3024942874908447,-2.5706241130828857,5.336688995361328,-23.439308166503906,-0.26479485630989075,0.3399123251438141,-0.15415151417255402,0.0,0.43087896704673767,131,80,511.5084228515625,0.15415151417255402,1838,1845,1784,1789,0.06104214996632991,-0.039251277284967814,0.7967014454354823,0.648978724328133
1729774194480942090,-0.07678253948688507,-0.0452636182308197,1.0438674688339233,-0.1298026740550995,-0.0409986674785614,-12.407768249511719,-0.17049835622310638,-0.14572517573833466,0.4231603741645813,0.04782469943165779,0.06913473457098007,2.4014039039611816,-2.5994906425476074,5.3661909103393555,-23.472557067871094,-0.23389534652233124,0.22135081887245178,-0.41148215532302856,0.0,0.32202982902526855,137,82,511.54168701171875,0.41148215532302856,1846,1847,1821,1809,0.056645333392153975,-0.039107659796693554,0.8171058053582276,0.6144237122925396
1729774194579728353,0.00018168485257774591,-0.044730596244335175,1.0217632055282593,-0.0687505379319191,0.002096974290907383,-12.817176818847656,-0.18927828967571259,-0.12353062629699707,0.4217365086078644,0.0500752292573452,0.059952426701784134,2.5048720836639404,-2.622572898864746,5.383017063140869,-23.527381896972656,-0.20398567616939545,0.12204747647047043,-0.6766520738601685,0.0,0.23770935833454132,143,83,511.59649658203125,0.6766520738601685,1832,1832,1832,1824,0.04973071053730212,-0.04147043239574067,0.8274702772102241,0.5962089313740495
1729774194680303517,0.08087566494941711,-0.05405211076140404,0.9799513816833496,-0.07114473730325699,-0.06134937331080437,-12.824359893798828,-0.19331574440002441,-0.11022517085075378,0.4245651364326477,0.060053449124097824,0.0499141700565815,2.6051249504089355,-2.643815279006958,5.390581130981445,-23.61624526977539,-0.1755969077348709,0.019267233088612556,-0.9984240531921387,0.0,0.1766507923603058,149,82,511.68536376953125,0.9984240531921387,1840,1836,1828,1821,0.040912626054848564,-0.049152940612932836,0.8175023825398906,0.6137354569803322
1729774194779930188,0.07634828984737396,-0.029818594455718994,0.9349439144134521,-0.03403462469577789,-0.0409986786544323,-11.673945426940918,-0.20505210757255554,-0.07619073241949081,0.42719218134880066,0.07274984568357468,0.0390004962682724,2.7009060382843018,-2.6607964038848877,5.388157367706299,-23.725536346435547,-0.15903520584106445,-0.0712130144238472,-1.2384973764419556,0.0,0.1742512285709381,154,79,511.7946472167969,1.2384973764419556,1789,1780,1783,1782,0.030802582012768167,-0.05737803091749867,0.7873112234112869,0.6643605163761139
1729774194878140996,0.0419994555413723,0.003740364219993353,0.8973919749259949,-0.05840418487787247,-0.09048549830913544,-10.933367729187012,-0.20820803940296173,-0.06417358666658401,0.4301016628742218,0.08203227072954178,0.030798178166151047,2.7923693656921387,-2.679140329360962,5.373434543609619,-23.865442276000977,-0.15163926780223846,-0.16745059192180634,-1.3915904760360718,0.0,0.22590743005275726,159,77,511.9345703125,1.3915904760360718,1786,1780,1773,1763,0.023710848373369255,-0.06306410897237878,0.7670467481379052,0.6965709388219024
1729774194977695907,0.026820046827197075,0.0199859831482172,0.8691626191139221,-0.02488534152507782,-0.09407681226730347,-10.59817886352539,-0.213348388671875,-0.04697581008076668,0.4260319471359253,0.08810227364301682,0.02495102398097515,2.88065242767334,-2.696272373199463,5.349179744720459,-24.01716423034668,-0.1465134173631668,-0.2607128322124481,-1.4867122173309326,0.0,0.29906079173088074,165,75,512.0863037109375,1.4867122173309326,1761,1756,1754,1753,0.018711326377451903,-0.06597071657193372,0.7468585882348693,0.72747091369992
1729774195076403588,0.03321138769388199,0.01732231117784977,0.8438624739646912,-0.00812596082687378,-0.13118693232536316,-10.326437950134277,-0.2169332206249237,-0.018120529130101204,0.4273681640625,0.09279292076826096,0.019338330253958702,2.9662773609161377,-2.711064577102661,5.318655014038086,-24.164064407348633,-0.14020217955112457,-0.3448832333087921,-1.5456359386444092,0.0,0.3722916841506958,169,75,512.2332153320312,1.5456359386444092,1767,1769,1747,1744,0.014502843710493261,-0.06948186495558019,0.7466337374955698,0.727808979636565
1729774195177962758,0.03800515830516815,-0.0002532266080379486,0.8225573301315308,-0.03326509892940521,-0.1647057831287384,-10.120536804199219,-0.22112460434436798,-0.005605412181466818,0.4274544417858124,0.09736011177301407,0.012482229620218277,3.049644708633423,-2.7248916625976562,5.2803874015808105,-24.31521987915039,-0.13459530472755432,-0.42703762650489807,-1.5845264196395874,0.0,0.447746604681015,174,74,512.3843383789062,1.5845264196395874,1747,1743,1737,1735,0.00923661006130369,-0.07192711161059581,0.7364381682462774,0.7430062182715761
1729774195278252242,0.008715731091797352,0.001609806902706623,0.8156426548957825,-0.011717580258846283,-0.1715717762708664,-10.268695831298828,-0.21912728250026703,0.021359775215387344,0.4290371835231781,0.10089781880378723,0.004360764287412167,3.131256341934204,-2.7420036792755127,5.22982120513916,-24.486236572265625,-0.13026663661003113,-0.5167582035064697,-1.610589861869812,0.0,0.5329244136810303,179,77,512.5553588867188,1.610589861869812,1794,1796,1773,1766,0.0033577778592180658,-0.07755882905390925,0.766076597582536,0.6980816758414345
1729774195480674338,-0.004334399476647377,0.0008116564713418484,0.7980656623840332,-0.07396683096885681,-0.20269639790058136,-11.797393798828125,-0.21458040177822113,0.04784559831023216,0.4251738488674164,0.10032191872596741,-0.011251826770603657,-2.998309373855591,-2.7716989517211914,5.106245517730713,-24.8370418548584,-0.11965072900056839,-0.7025390267372131,-1.8817124366760254,0.0,0.7126551866531372,188,83,512.9061889648438,1.8817124366760254,1806,1802,1794,1792,-0.009338819161993972,-0.0831223271407512,0.8257744638745893,0.5992223422938862
1729774195679643982,-0.001937336870469153,0.0010778289288282394,0.7938047051429749,-0.10030306875705719,-0.23501811921596527,-12.266657829284668,-0.20662125945091248,0.07034016400575638,0.42651188373565674,0.09825731068849564,-0.0213240385055542,-2.896662950515747,-2.789144515991211,5.0010223388671875,-25.116653442382812,-0.11192861199378967,-0.8322536945343018,-2.1930487155914307,0.0,0.8026992082595825,192,84,513.0986328125,2.095054864883423,1845,1841,1831,1830,-0.01791083488624489,-0.08238466325177152,0.8357583198835473,0.5812839598808215
1729774195718983647,-0.0022033024579286575,-0.003184075001627207,0.7943373322486877,-0.07516393065452576,-0.2900847792625427,-11.908724784851074,-0.20389673113822937,0.07973920553922653,0.42506012320518494,0.09668098390102386,-0.02759518101811409,-2.8334412574768066,-2.7965447902679443,4.945675849914551,-25.264802932739258,-0.10776922851800919,-0.891514241695404,-2.3514153957366943,0.0,0.8980043530464172,197,82,513.3339233398438,2.3514153957366943,1836,1843,1817,1811,-0.02262517669028591,-0.07912482305167907,0.8158598922344288,0.6165816274721023
1729774195792709898,0.0047211903147399426,-0.004515091422945261,0.790875256061554,-0.10389435291290283,-0.31761807203292847,-10.931888580322266,-0.19186560809612274,0.10402467846870422,0.42560136318206787,0.09421233832836151,-0.035588338971138,-2.754714250564575,-2.807016372680664,4.855922698974609,-25.502029418945312,-0.10304892808198929,-0.9736647009849548,-2.513845920562744,0.0,0.9791026711463928,201,79,513.5711669921875,2.513845920562744,1807,1816,1785,1778,-0.028108853459921364,-0.07427063530095351,0.7859985782997075,0.6664866283471964
1729774195893203314,0.028689229860901833,-0.008509200066328049,0.7914077639579773,-0.16973493993282318,-0.2709311544895172,-10.400376319885254,-0.1848830282688141,0.11572252213954926,0.42773115634918213,0.09272672981023788,-0.04380509629845619,-2.6761209964752197,-2.8176183700561523,4.750405311584473,-25.771087646484375,-0.09908988326787949,-1.0528606176376343,-2.6066229343414307,0.0,1.0575132369995117,206,77,513.8402099609375,2.6066229343414307,1789,1805,1764,1770,-0.033719137868944725,-0.07122891261844572,0.7659565664896208,0.6982684014290857
1729774195988039470,0.0193687304854393,-0.04686048626899719,0.793005645275116,-0.20923921465873718,-0.3008587062358856,-10.123847007751465,-0.17617486417293549,0.12703253328800201,0.42638885974884033,0.09200502932071686,-0.05377534031867981,-2.5972795486450195,-2.8269155025482178,4.6458330154418945,-26.02545928955078,-0.09578976035118103,-1.1233772039413452,-2.652190685272217,0.0,1.1274538040161133,210,76,514.0946044921875,2.652190685272217,1799,1772,1759,1755,-0.040849563956705415,-0.06972427853461453,0.7556916289779677,0.7140868108809991
1729774196184439084,-0.2802374064922333,0.16806349158287048,0.787153422832489,-0.28620535135269165,-0.34119346737861633,-9.568635940551758,-0.15086109936237335,0.1489926427602768,0.4307003319263458,0.05697692558169365,-0.05566222965717316,-2.444979667663574,-2.8442318439483643,4.397977828979492,-26.57151222229004,-0.09623214602470398,-1.2462064027786255,-2.668978691101074,0.0,1.249916434288025,219,74,514.640625,2.668978691101074,1785,1754,1751,1737,-0.04116878349690052,-0.04207485172409108,0.7376549587156458,0.7412058103641812
1729774196283233448,-0.29887768626213074,0.23784096539020538,0.7852892875671387,-0.2850082516670227,-0.335207998752594,-9.407028198242188,-0.15086109936237335,0.1489926427602768,0.4307003319263458,0.022296106442809105,-0.03645896539092064,-2.3655242919921875,-2.853785753250122,4.263740539550781,-26.851512908935547,-0.1042347103357315,-1.2606478929519653,-2.637138605117798,0.0,1.2649497985839844,224,72,514.920654296875,2.637138605117798,1747,1737,1736,1722,-0.026244639871463006,-0.01604119928120431,0.7193426852367638,0.7679407178946307
1729774196484176444,-0.026696426793932915,0.04476667940616608,0.7836916446685791,-0.33073386549949646,-0.28608712553977966,-9.800939559936523,-0.14545942842960358,0.15291106700897217,0.432704895734787,-0.00043159082997590303,-0.01758688874542713,-2.264746904373169,-2.868293523788452,4.089053630828857,-27.211658477783203,-0.11831387877464294,-1.2338902950286865,-2.5977916717529297,0.0,1.249324917793274,228,75,515.1743774414062,2.5971548557281494,1739,1774,1740,1747,-0.013189486619454693,0.00032364305480081485,0.7498839461529285,0.7229096872888537
1729774196519312672,0.06997469812631607,-0.05350420996546745,0.7828927636146545,-0.3834063410758972,-0.22383788228034973,-9.96015453338623,-0.1340133100748062,0.16172872483730316,0.4308576285839081,0.0005400017835199833,-0.018199168145656586,-2.202030658721924,-2.8766067028045654,4.005860805511475,-27.383201599121094,-0.12570029497146606,-1.217416763305664,-2.608600616455078,0.0,1.2238889932632446,233,76,515.4523315429688,2.608600616455078,1776,1790,1751,1754,-0.013830604289431453,-0.00041033337294944414,0.7598740329893583,0.7076770081609616
1729774196693208065,0.0518641360104084,-0.052441198378801346,0.7844904661178589,-0.40016570687294006,-0.18912196159362793,-9.98409652709961,-0.1121242418885231,0.18119053542613983,0.43296897411346436,0.01075020246207714,-0.032476287335157394,-2.051109790802002,-2.9039907455444336,3.7559635639190674,-27.91993522644043,-0.13856752216815948,-1.1856645345687866,-2.654752492904663,0.0,1.1937341690063477,242,76,515.9890747070312,2.654752492904663,1766,1758,1751,1747,-0.02467763988507978,-0.008165688398863873,0.7595553538898103,0.708167090289903
1729774196786738705,0.01671108603477478,-0.015156249515712261,0.787686288356781,-0.3702382743358612,-0.1963045746088028,-9.979308128356934,-0.08691775798797607,0.1953405886888504,0.43390101194381714,0.011161772534251213,-0.036228910088539124,-1.9724771976470947,-2.91758131980896,3.6392314434051514,-28.179344177246094,-0.14219340682029724,-1.1828359365463257,-2.6781086921691895,0.0,1.191352128982544,246,76,516.2484741210938,2.6781086921691895,1784,1784,1756,1753,-0.027527948850571478,-0.008477204632087577,0.7594539808531562,0.7083229284889342
1729774196882810891,0.004193536005914211,0.00668546836823225,0.7839674949645996,-0.4457951486110687,-0.12796244025230408,-9.99566650390625,-0.07772054523229599,0.20100516080856323,0.4306395947933197,0.009262452833354473,-0.03712477535009384,-1.8938021659851074,-2.930213689804077,3.5110549926757812,-28.465730667114258,-0.14091260731220245,-1.1814903020858765,-2.7017834186553955,0.0,1.189863681793213,251,76,516.5348510742188,2.7017834186553955,1764,1762,1750,1748,-0.02820834853624647,-0.007034513057093335,0.759443746895652,0.7083386593167883
1729774196980679298,-0.00805617030709982,0.0008263024501502514,0.7839674949645996,-0.423050194978714,-0.08726103603839874,-9.907082557678223,-0.06369707733392715,0.20662592351436615,0.4291984438896179,0.0061192805878818035,-0.037243738770484924,-1.8150513172149658,-2.9417693614959717,3.3937695026397705,-28.731204986572266,-0.14017480611801147,-1.1805057525634766,-2.7186343669891357,0.0,1.1887989044189453,256,76,516.8003540039062,2.7186343669891357,1779,1784,1751,1756,-0.028298698237820552,-0.004647399163937601,0.75945874500137,0.7083156053195863
1729774197182138293,-0.0021972765680402517,-0.011157851666212082,0.7837011814117432,-0.4086848795413971,-0.03817988559603691,-9.971726417541504,-0.047167688608169556,0.21312932670116425,0.4268632233142853,0.001717990031465888,-0.03832926228642464,-1.7142293453216553,-2.9587385654449463,3.229522943496704,-29.10761070251465,-0.14132024347782135,-1.179359793663025,-2.740551471710205,0.0,1.1878299713134766,260,76,517.0880737304688,2.7353715896606445,1776,1785,1751,1755,-0.029123107165458278,-0.0013047127967245544,0.7594406773103133,0.7083433775836163
1729774197218077893,0.0036610302049666643,-0.016484109684824944,0.7821031808853149,-0.3907283544540405,-0.03578568994998932,-9.92144775390625,-0.02553430199623108,0.2108420878648758,0.42837491631507874,-0.0005810268921777606,-0.039427727460861206,-1.651458501815796,-2.9669852256774902,3.1528475284576416,-29.28495979309082,-0.14171123504638672,-1.179052710533142,-2.7487199306488037,0.0,1.1875383853912354,265,76,517.3540649414062,2.7487199306488037,1747,1741,1761,1765,-0.029957309794521426,0.000441237229206126,0.7594092209735029,0.7083917276951556
1729774197292326062,-0.059721626341342926,-0.02047799341380596,0.6209843158721924,-0.3956451117992401,0.02716783620417118,-9.92119026184082,-0.0015352293848991394,0.21656493842601776,0.4301683008670807,-0.005342855118215084,-0.04089836776256561,-1.5782455205917358,-2.979491710662842,3.0265591144561768,-29.579978942871094,-0.143638014793396,-1.1815781593322754,-2.769399642944336,0.0,1.190276861190796,269,75,517.6491088867188,2.769399642944336,1690,1680,1834,1845,-0.03066522531980953,0.00400377143148905,0.7493621379349305,0.7236980780839918
1729774197493607655,-0.007524178829044104,-0.0013020308688282967,0.03748571500182152,-0.3752944767475128,0.047518547624349594,-9.838591575622559,0.01856590434908867,0.2104865461587906,0.42715615034103394,-0.01862914301455021,-0.04195807874202728,-1.5189101696014404,-3.006249189376831,2.7854244709014893,-30.146345138549805,-0.15980882942676544,-1.1896486282348633,-2.786078929901123,0.0,1.2003344297409058,272,75,518.2154541015625,2.786078929901123,1690,1690,1829,1833,-0.03145932657248071,0.013958753056331052,0.7492098931439163,0.723927969500054
1729774197594764879,0.05665815249085426,0.00029584718868136406,-0.15825659036636353,-0.384871244430542,0.047518547624349594,-9.771552085876465,0.01217000000178814,0.21661502122879028,0.43101489543914795,-0.014957067556679249,-0.042125117033720016,-1.527762770652771,-3.021062135696411,2.670076370239258,-30.416950225830078,-0.17083701491355896,-1.1929187774658203,-2.787785768508911,0.0,1.2050894498825073,272,75,518.486083984375,2.787785768508911,1712,1717,1806,1808,-0.031584494592596914,0.011207431115473383,0.7492508346269106,0.723866153259182
1729774197693558635,0.0755656436085701,-0.0036976649425923824,-0.24668654799461365,-0.39237314462661743,0.036723989993333817,-9.774027824401855,0.012234828434884548,0.21657611429691315,0.43106552958488464,-0.0066999634727835655,-0.04240763187408447,-1.5495256185531616,-3.03840970993042,2.5442895889282227,-30.716684341430664,-0.17798234522342682,-1.1968333721160889,-2.7907371520996094,0.0,1.2099950313568115,271,75,518.7858276367188,2.7907371520996094,1729,1729,1768,1769,-0.03179619148873171,0.005020417247283467,0.7493088799803957,0.7237785050191018
1729774197791931905,0.05426068231463432,-0.0044967844150960445,-0.2541433274745941,-0.40075287222862244,0.007993584498763084,-9.752479553222656,0.011288126930594444,0.21422812342643738,0.4307153522968292,0.000802027469035238,-0.04289981722831726,-1.575265884399414,-3.0549073219299316,2.4283437728881836,-30.991483688354492,-0.1776578575372696,-1.1991162300109863,-2.7910091876983643,0.0,1.212205410003662,269,74,519.0606079101562,2.7910091876983643,1755,1756,1762,1770,-0.03173612816010426,-0.0005929542099555768,0.7393189207471362,0.73873800154802
1729774197887598865,0.01697617396712303,-0.012220075353980064,-0.22325065732002258,-0.41751232743263245,0.03792108967900276,-9.781209945678711,-0.00019076955504715443,0.21527013182640076,0.427788108587265,0.004810248035937548,-0.04371059313416481,-1.599082350730896,-3.0725767612457275,2.302932024002075,-31.2868709564209,-0.17144277691841125,-1.2014161348342896,-2.7883048057556152,0.0,1.2135869264602661,268,75,519.3560180664062,2.7883048057556152,1753,1751,1742,1744,-0.03277250657828503,-0.0036042262249912716,0.7492749644595736,0.7238297183687371
1729774197986374991,-0.006992208771407604,-0.006094713229686022,-0.17424845695495605,-0.3971615731716156,0.0032051699236035347,-9.77163314819336,-0.0032270727679133415,0.2171270251274109,0.4304356575012207,0.005611386615782976,-0.044709619134664536,-1.618488073348999,-3.088409900665283,2.187185525894165,-31.55791473388672,-0.165259450674057,-1.20492422580719,-2.7879745960235596,0.0,1.2162044048309326,267,75,519.6270141601562,2.7879745960235596,1768,1769,1752,1757,-0.033521043930625063,-0.004204312267834993,0.7492387225525358,0.723884441344679
1729774198184444981,-0.012319912202656269,-0.000234345905482769,-0.11459929496049881,-0.37756627798080444,0.018247682601213455,-9.773914337158203,-0.008661835454404354,0.21396774053573608,0.42921948432922363,0.004793072585016489,-0.045270372182130814,-1.6370794773101807,-3.1063385009765625,2.0239439010620117,-31.948829650878906,-0.15543939173221588,-1.2109724283218384,-2.790677785873413,0.0,1.2199081182479858,266,75,519.9260864257812,2.7905163764953613,1765,1771,1750,1757,-0.03394118314997875,-0.0035911077097376563,0.7492229975326415,0.7239081840713596
1729774198222553029,-0.01737985387444496,-0.005294409114867449,-0.09142978489398956,-0.413479208946228,0.009867986664175987,-9.755958557128906,-0.011614729650318623,0.21599918603897095,0.43078887462615967,0.0035578685346990824,-0.04566435515880585,-1.6456146240234375,-3.1146481037139893,1.946902871131897,-32.1318244934082,-0.1524394452571869,-1.2136328220367432,-2.790975332260132,0.0,1.2231690883636475,265,75,520.200927734375,2.790975332260132,1754,1753,1741,1741,-0.03423636500559507,-0.0026656141409097597,0.7492134314148775,0.7239226273480931
1729774198295585390,-0.013385158963501453,-0.007424910087138414,-0.05947183817625046,-0.35003286600112915,0.0038824714720249176,-9.734411239624023,-0.009856284596025944,0.21536824107170105,0.42955151200294495,0.0023402771912515163,-0.04595737159252167,-1.6527905464172363,-3.1283562183380127,1.82129967212677,-32.427616119384766,-0.14915655553340912,-1.2188407182693481,-2.7900829315185547,0.0,1.227933406829834,265,75,520.4967651367188,2.7900829315185547,1763,1766,1756,1757,-0.034455896769946516,-0.0017533530494191459,0.7492060577243506,0.7239337602564335
1729774198492585300,-0.00406581861898303,3.3404212445020676e-05,-0.023263370618224144,-0.3871782124042511,-0.026707544922828674,-9.7509765625,-0.006516388151794672,0.20740768313407898,0.42986759543418884,0.001525558647699654,-0.0460088886320591,-1.6607623100280762,-3.152932643890381,1.5805211067199707,-32.998268127441406,-0.14676477015018463,-1.2282660007476807,-2.78867769241333,0.0,1.2370033264160156,264,75,521.0673828125,2.78867769241333,1762,1766,1756,1760,-0.03449449370799965,-0.0011429577573850687,0.7492054615066508,0.7239346604287157
1729774198592645042,-0.003266889601945877,-0.011151885613799095,-0.016339141875505447,-0.42668259143829346,-0.02311624400317669,-9.725837707519531,-0.01373421959578991,0.21954527497291565,0.42897164821624756,0.001280564465560019,-0.046452708542346954,-1.66279935836792,-3.1640450954437256,1.4652464389801025,-33.27213668823242,-0.14530809223651886,-1.2313785552978516,-2.7869367599487305,0.0,1.2399224042892456,264,75,521.3412475585938,2.7869367599487305,1759,1765,1755,1761,-0.034827002987434116,-0.0009593870465386248,0.7491903359223264,0.7239574968003636
1729774198790199318,-0.0011363502126187086,-0.00023291818797588348,-0.013675983995199203,-0.3692217469215393,-0.008751031942665577,-9.828787803649902,-0.014645984396338463,0.20826075971126556,0.4283566474914551,0.0008960812701843679,-0.04729302227497101,-1.664664626121521,-3.1808526515960693,1.3002129793167114,-33.65693283081055,-0.1449471265077591,-1.240156888961792,-2.783418893814087,0.0,1.2458205223083496,264,76,521.6357421875,2.7836432456970215,1760,1762,1758,1762,-0.03592930000848888,-0.0006802602194027535,0.7591499342336361,0.7087901617238576
1729774198827240610,0.002059441525489092,0.005626028403639793,-0.008882293477654457,-0.4075288772583008,-0.03508725389838219,-9.744991302490234,-0.014645984396338463,0.20826075971126556,0.4283566474914551,0.0007104455144144595,-0.04735139384865761,-1.6654614210128784,-3.1891915798187256,1.2218410968780518,-33.8372688293457,-0.14568662643432617,-1.2435994148254395,-2.7836532592773438,0.0,1.2521039247512817,264,75,521.9063720703125,2.7836532592773438,1749,1748,1747,1747,-0.035500275731614996,-0.0005322368544143257,0.749159160090104,0.7240045637255745
1729774198898081540,0.0028578112833201885,0.005094465333968401,-0.0035560906399041414,-0.40127596259117126,0.009735862724483013,-9.740080833435059,-0.01947442628443241,0.2131200134754181,0.4324382245540619,0.0008343567606061697,-0.046722766011953354,-1.6661150455474854,-3.201084613800049,1.0960450172424316,-34.13547134399414,-0.14558981359004974,-1.2483948469161987,-2.7843515872955322,0.0,1.2568556070327759,264,75,522.20458984375,2.7843515872955322,1757,1761,1756,1763,-0.03502932632725338,-0.0006250845915960578,0.7491812568172753,0.7239712040084776
1729774199097894424,-0.003533770330250263,-0.0026287040673196316,-0.004088724497705698,-0.4096556603908539,-0.02258586511015892,-9.761627197265625,-0.017270540818572044,0.21112529933452606,0.42524200677871704,0.0005524674779735506,-0.046654120087623596,-1.6671900749206543,-3.2255687713623047,0.8512149453163147,-34.703704833984375,-0.14450010657310486,-1.2558715343475342,-2.77840518951416,0.0,1.2641571760177612,264,75,522.7728271484375,2.77840518951416,1747,1747,1745,1744,-0.0349778979869944,-0.00041389973001114216,0.7491838061113073,0.7239673552250544
1729774199193451178,0.0033904449082911015,-0.0004981742240488529,0.0007049724808894098,-0.4108527600765228,-0.010614855214953423,-9.73050308227539,-0.006598616950213909,0.21638154983520508,0.42749544978141785,0.0005623213364742696,-0.04675990343093872,-1.667471170425415,-3.238234519958496,0.7322192788124084,-34.97373580932617,-0.1454467475414276,-1.2613393068313599,-2.7759835720062256,0.0,1.2696974277496338,264,75,523.0428466796875,2.7759835720062256,1758,1762,1757,1761,-0.03505714897100577,-0.0004212799982170317,0.7491800977262996,0.7239729539345169
1729774199289952451,0.002856957260519266,0.002167756436392665,-0.0014369473792612553,-0.40650349855422974,-0.01882905513048172,-9.768589973449707,-0.010571856983006,0.21109025180339813,0.43021029233932495,0.0007003344944678247,-0.04643094539642334,-1.6675184965133667,-3.251187801361084,0.6079018115997314,-35.27119827270508,-0.1453438550233841,-1.2628177404403687,-2.777357816696167,0.0,1.2711544036865234,264,75,523.34033203125,2.777357816696167,1749,1747,1749,1746,-0.03481069822721389,-0.0005246847531694696,0.7491915242411941,0.7239557027163949
1729774199387473888,0.00019380333833396435,-0.00449014687910676,-0.0009043141617439687,-0.40410929918289185,-0.01404065452516079,-9.762604713439941,-0.010571856983006,0.21109025180339813,0.43021029233932495,0.0008360319770872593,-0.04645416513085365,-1.6674447059631348,-3.2635345458984375,0.492154598236084,-35.544471740722656,-0.14555872976779938,-1.2650021314620972,-2.7777786254882812,0.0,1.2733489274978638,264,74,523.6135864257812,2.7777786254882812,1756,1763,1755,1763,-0.03436371966032022,-0.0006179961762575586,0.7392014291462328,0.7389124715888418
1729774199489195955,0.004987482912838459,-0.006620676722377539,0.0028241174295544624,-0.3945324420928955,-0.027208760380744934,-9.715917587280273,-0.012497838586568832,0.21876618266105652,0.4341268837451935,0.0010913392761722207,-0.047080520540475845,-1.6672306060791016,-3.2774336338043213,0.3648354709148407,-35.83830261230469,-0.145396888256073,-1.2697654962539673,-2.774259090423584,0.0,1.2780628204345703,264,75,523.9074096679688,2.774259090423584,1746,1746,1747,1744,-0.035297347160466924,-0.000817597323954395,0.7491684916078956,0.7239904759650415
1729774199683442621,0.002590102143585682,0.002969087567180395,0.0036235754378139973,-0.3875976800918579,-0.043940767645835876,-9.744478225708008,-0.01809992827475071,0.2170804738998413,0.42820730805397034,0.0012304718839004636,-0.04715816676616669,-1.6669083833694458,-3.2961606979370117,0.19744981825351715,-36.22196578979492,-0.14599640667438507,-1.2757521867752075,-2.7723031044006348,0.0,1.282650351524353,264,74,524.1773071289062,2.772268772125244,1747,1748,1746,1747,-0.03488411029850085,-0.0009095366703447433,0.7391767526050366,0.738949110959789
1729774199719891976,0.0025900984182953835,0.005365928169339895,0.0022919951006770134,-0.3840063810348511,-0.01521034725010395,-9.73370361328125,-0.01823538728058338,0.21106551587581635,0.4338212013244629,0.001435757614672184,-0.04672261327505112,-1.66671621799469,-3.304967164993286,0.12114651501178741,-36.404991149902344,-0.14658890664577484,-1.2764467000961304,-2.7731709480285645,0.0,1.2848364114761353,264,75,524.47412109375,2.7731709480285645,1756,1763,1755,1761,-0.03502921189958876,-0.0010756427067767913,0.7491807507580939,0.723971968026705
